id,nome,endereco,latitude,longitude,telefone,horario,website,email,avaliacao,total_reviews,categoria,status_negocio,google_maps_url,osm_id,fontes
c327bcc6d5950748,[P] ZONA URBANOVA,"Ctra. Saladar, 2, 03008 Urbanova, Alicante, Espanha",38.2882966,-0.5210292,,Mostrar horário de funcionamento da semana,,,"4,2",42,Estacionamento gratuito,Aberto 24 horas,https://www.google.com/maps/place/%5BP%5D+ZONA+URBANOVA/data=!4m7!3m6!1s0xd62498ea890c959:0x6bc3abbe56bb0584!8m2!3d38.2882966!4d-0.5210292!16s%2Fg%2F11g8tz5q7y!19sChIJWcmQqI5JYg0RhAW7Vr6rw2s?authuser=0&hl=pt-BR&rclk=1,,google_maps_scraper
a3f462a52e02b2a8,A Baronesa de São José,"Av. Shishima Hifumi, 2103 - Urbanova, São José dos Campos - SP, 12244-000, Brasil",-23.204045,-45.943314,+55 12 3911-3887,,abaronesadesaojose.com.br,,"4,3",43,Pizza,Permanentemente fechado,https://www.google.com/maps/place/A+Baronesa+de+S%C3%A3o+Jos%C3%A9/data=!4m7!3m6!1s0x94cc4a4969a6ba3d:0x30e0a0d8136b2d33!8m2!3d-23.204045!4d-45.943314!16s%2Fg%2F11cms1d2fb!19sChIJPbqmaUlKzJQRMy1rE9ig4DA?authuser=0&hl=pt-BR&rclk=1,,google_maps_scraper
47530a2c6d38534e,A2 Concept,"Av. Linneu de Moura, 1685 - Urbanova, São José dos Campos - SP, 12244-380, Brasil",-23.1958514,-45.9193966,,Mostrar horário de funcionamento da semana,,,"5,0",50,Escritório de arquitetura de interiores,Fechado · Abre seg. às 08:00,https://www.google.com/maps/place/A2+Concept/data=!4m7!3m6!1s0x94cc352cd78b1c9d:0x1ece405a1acf53eb!8m2!3d-23.1958514!4d-45.9193966!16s%2Fg%2F11smmpxvlm!19sChIJnRyL1yw1zJQR61PPGlpAzh4?authuser=0&hl=pt-BR&rclk=1,,google_maps_scraper
63044c7c19444848,A7 Lavanderia Urbanova,"Av. Shishima Hifumi, 2.200 - Urbanova II, São José dos Campos - SP, 12244-000, Brasil",-23.2037621,-45.9438038,+55 12 3346-6490,Mostrar horário de funcionamento da semana,a7lavanderia.com.br,,"4,9",49,Lavanderia,Fechado · Abre seg. às 08:00,https://www.google.com/maps/place/A7+Lavanderia+Urbanova/data=!4m7!3m6!1s0x94cc35aa4b31b2af:0xd8e8d4588a0dc553!8m2!3d-23.2037621!4d-45.9438038!16s%2Fg%2F11h7pdb_0_!19sChIJr7IxS6o1zJQRU8UNiljU6Ng?authuser=0&hl=pt-BR&rclk=1,,google_maps_scraper
f807b98a99de700c,ABRAÃO BARBEARIA | UNIDADE URBANOVA - SJC,"Best Center - Rua, Av. Ironman Victor Garrido, Número 450 - Loja 3 - Urbanova II, São José dos Campos - SP, 12244-392, Brasil",-23.2004434,-45.9476918,+55 12 98865-1001,Mostrar horário de funcionamento da semana,sites.appbarber.com.br,,"4,8",48,Barbearia,Fechado · Abre dom. às 10:00,https://www.google.com/maps/place/ABRA%C3%83O+BARBEARIA+%7C+UNIDADE+URBANOVA+-+SJC/data=!4m7!3m6!1s0x94cc342eba7721f9:0xb366bd28984c366f!8m2!3d-23.2004434!4d-45.9476918!16s%2Fg%2F11d_cxt2yj!19sChIJ-SF3ui40zJQRbzZMmCi9ZrM?authuser=0&hl=pt-BR&rclk=1,,google_maps_scraper
943353a438755d9e,Academia da Mente - Aulas Particulares,"Av. Shishima Hifumi, 1888 - Urbanova, São José dos Campos - SP, 12244-000, Brasil",-23.2000214,-45.9369469,+55 12 98249-5555,Mostrar horário de funcionamento da semana,,,,,Centro educacional,Fechado · Abre seg. às 08:00,https://www.google.com/maps/place/Academia+da+Mente+-+Aulas+Particulares/data=!4m7!3m6!1s0x94cc35a7fa954fbf:0xf962ded653deb550!8m2!3d-23.2000214!4d-45.9369469!16s%2Fg%2F11ghdr3kt1!19sChIJv0-V-qc1zJQRULXeU9beYvk?authuser=0&hl=pt-BR&rclk=1,,google_maps_scraper
b8d74b460d9267ef,Academia de Artes Poema,"Av. Antônio Widmer, 615 - Urbanova, São José dos Campos - SP, 12244-873, Brasil",-23.2027218,-45.9557094,+55 12 99630-9805,Mostrar horário de funcionamento da semana,instagram.com,,"5,0",50,Escola de teatro,Fechado · Abre ter. às 16:00,https://www.google.com/maps/place/Academia+de+Artes+Poema/data=!4m7!3m6!1s0x94cc4a09eec8c853:0xf9b4b8b4ca2df1d8!8m2!3d-23.2027218!4d-45.9557094!16s%2Fg%2F11dx942k60!19sChIJU8jI7glKzJQR2PEtyrS4tPk?authuser=0&hl=pt-BR&rclk=1,,google_maps_scraper
a2a18796ce75eb9a,Academia Novafit,"Av. Shishima Hifumi, 2212 - Urbanova, São José dos Campos - SP, 12244-450, Brasil",-23.2037422,-45.9439653,+55 12 98184-4458,Mostrar horário de funcionamento da semana,,,"5,0",50,Academia,Fechado · Abre ter. às 08:00,https://www.google.com/maps/place/Academia+Novafit/data=!4m7!3m6!1s0x94cc35880f48f861:0x96cc15a108cfadc4!8m2!3d-23.2037422!4d-45.9439653!16s%2Fg%2F11ss74t1bc!19sChIJYfhID4g1zJQRxK3PCKEVzJY?authuser=0&hl=pt-BR&rclk=1,,google_maps_scraper
63bf6172eee8a94b,Academia Studio Life ON - SJC - Unidade Urbanova Ribeirão Vermelho,"Av. Maria de Lourdes Friggi, n405 - Sala 4, 5 - Urbanova, São José dos Campos - SP, 12244-882, Brasil",-23.1994724,-45.959259,+55 12 99740-5797,Mostrar horário de funcionamento da semana,instagram.com,,"5,0",50,Academia,Fechado · Abre seg. às 05:00,https://www.google.com/maps/place/Academia+Studio+Life+ON+-+SJC+-+Unidade+Urbanova+Ribeir%C3%A3o+Vermelho/data=!4m7!3m6!1s0x94cc35e25610bcdd:0x1690ae8c462d5fc3!8m2!3d-23.1994724!4d-45.959259!16s%2Fg%2F11rjj72l64!19sChIJ3bwQVuI1zJQRw18tRoyukBY?authuser=0&hl=pt-BR&rclk=1,,google_maps_scraper
400f70e1b9fdd802,Academia XBody Urbanova,"Av. Ironman Victor Garrido, 527 - Urbanova, São José dos Campos - SP, 12244-392, Brasil",-23.200993,-45.9484718,+55 12 99159-5800,,instagram.com,,"3,9",39,Sala de fitness,Temporariamente fechado,https://www.google.com/maps/place/Academia+XBody+Urbanova/data=!4m7!3m6!1s0x94cc35ead363dbb7:0x34162f918aea49de!8m2!3d-23.200993!4d-45.9484718!16s%2Fg%2F11gnpwq62x!19sChIJt9tj0-o1zJQR3knqipEvFjQ?authuser=0&hl=pt-BR&rclk=1,,google_maps_scraper
3a69547daa9f098b,Acrom Construtora,"Maria - Av. Maria de Lourdes Friggi, 505 - Urbanova VII, São José dos Campos - SP, 12244-882, Brasil",-23.1992079,-45.9608069,+55 12 2012-1317,Mostrar horário de funcionamento da semana,acromconstrutora.com.br,,"5,0",50,Construtora,Fechado · Abre seg. às 08:00,https://www.google.com/maps/place/Acrom+Construtora/data=!4m7!3m6!1s0x94cc376fe5610203:0x6b7ca2217f623ad0!8m2!3d-23.1992079!4d-45.9608069!16s%2Fg%2F11lyml8qvw!19sChIJAwJh5W83zJQR0DpifyGifGs?authuser=0&hl=pt-BR&rclk=1,,google_maps_scraper
aff83a62f325fc68,Adega Urbanova,"Av. Shishima Hifumi, 1962 - Urbanova, São José dos Campos - SP, 12244-000, Brasil",-23.2036363,-45.9417979,,Mostrar horário de funcionamento da semana,instagram.com,,"4,3",43,Loja de bebidas,Fechado · Abre dom. às 10:00,https://www.google.com/maps/place/Adega+Urbanova/data=!4m7!3m6!1s0x94cc35f36f417c47:0xef01987f52b89239!8m2!3d-23.2036363!4d-45.9417979!16s%2Fg%2F11pkllqj6j!19sChIJR3xBb_M1zJQROZK4Un-YAe8?authuser=0&hl=pt-BR&rclk=1,,google_maps_scraper
329fbd838538259e,Adrielly Lima Advocacia e Consultoria Jurídica,"R. Piedade Martins Pereira, 548 - Urbanova, São José dos Campos - SP, 12244-395, Brasil",-23.2029959,-45.94666,+55 12 97898-5491,,,,"5,0",50,Escritório de advocacia,,https://www.google.com/maps/place/Adrielly+Lima+Advocacia+e+Consultoria+Jur%C3%ADdica/data=!4m7!3m6!1s0x94cc35eb3fde2931:0x95f66d933dcf9fe!8m2!3d-23.2029959!4d-45.94666!16s%2Fg%2F11v61396rp!19sChIJMSneP-s1zJQR_vncM9lmXwk?authuser=0&hl=pt-BR&rclk=1,,google_maps_scraper
dab6708dd04de5d1,Al Badah – Urbanova,"Av. Linneu de Moura, 1701 - Urbanova, São José dos Campos - SP, 12244-380, Brasil",-23.1933645,-45.9220544,+55 12 3949-0994,Mostrar horário de funcionamento da semana,albadah.com.br,,"4,5",45,Restaurante árabe,Fechado · Abre dom. às 11:30,https://www.google.com/maps/place/Al+Badah+%E2%80%93+Urbanova/data=!4m7!3m6!1s0x94cc35bcb3c542dd:0xbbe2885b123355a3!8m2!3d-23.1933645!4d-45.9220544!16s%2Fg%2F11tf7v6c4d!19sChIJ3ULFs7w1zJQRo1UzEluI4rs?authuser=0&hl=pt-BR&rclk=1,,google_maps_scraper
48026600af89766d,Allure Estética,"Av. Maria de Lourdes Friggi, 405 - Urbanova, São José dos Campos - SP, 12244-882, Brasil",-23.1994061,-45.9593165,+55 12 99706-2525,Mostrar horário de funcionamento da semana,allureesteticasjc.com.br,,"5,0",50,Centro de saúde e beleza,Fechado · Abre ter. às 08:00,https://www.google.com/maps/place/Allure+Est%C3%A9tica/data=!4m7!3m6!1s0x94cc3504a1be08a3:0xeeb29942b3c41441!8m2!3d-23.1994061!4d-45.9593165!16s%2Fg%2F11kr68m4r6!19sChIJowi-oQQ1zJQRQRTEs0KZsu4?authuser=0&hl=pt-BR&rclk=1,,google_maps_scraper
6676847800d7147e,Ana Bevilacqua Estética Avançada,"Av. Shishima Hifumi - Urbanova, São José dos Campos - SP, 12244-000, Brasil",-23.1999861,-45.9369081,+55 12 99227-7720,Mostrar horário de funcionamento da semana,instagram.com,,"5,0",50,Centro de saúde e beleza,Fechado · Abre ter. às 08:00,https://www.google.com/maps/place/Ana+Bevilacqua+Est%C3%A9tica+Avan%C3%A7ada/data=!4m7!3m6!1s0x94cc4b47177a6a63:0x929b1edcf004f1d2!8m2!3d-23.1999861!4d-45.9369081!16s%2Fg%2F11n658k2lz!19sChIJY2p6F0dLzJQR0vEE8Nwem5I?authuser=0&hl=pt-BR&rclk=1,,google_maps_scraper
dccbad4e2f21e5ba,Analysis Engenharia e Consultoria Ltda,"R. Rui Sérgio Rodrigues de Moura, 1353 - Urbanova, São José dos Campos - SP, 12244-465, Brasil",-23.1978023,-45.9429798,+55 12 99712-8440,Mostrar horário de funcionamento da semana,analysisengenharia.com.br,,,,Engenheiro mecânico,Fechado · Abre seg. às 08:00,https://www.google.com/maps/place/Analysis+Engenharia+e+Consultoria+Ltda/data=!4m7!3m6!1s0x94cc342b5cf2aed7:0xfa9801537f2e83e8!8m2!3d-23.1978023!4d-45.9429798!16s%2Fg%2F11cs4h32hb!19sChIJ167yXCs0zJQR6IMuf1MBmPo?authuser=0&hl=pt-BR&rclk=1,,google_maps_scraper
be88a6d6acb7eff4,Anexo Parque Tecnológico Univap,"Avenida Shishima Hifumi, 2911, Urbanova, São José dos Campos",-23.2083369,-45.9527579,(12) 3947-1000,,www.univap.br,,,,office:educational_institution,,,way/335925024,osm_overpass
6f57d687f6bb00a4,Animal Lux Pet & Pro Ave Pet & Centro Terapêutico Via Lux,"R. Albino dos Anjos Conrado, 81 - Urbanova, São José dos Campos - SP, 12244-850, Brasil",-23.2024389,-45.9530589,+55 12 99790-7943,Mostrar horário de funcionamento da semana,,,"4,6",46,Veterinário,Fechado · Abre seg. às 09:00,https://www.google.com/maps/place/Animal+Lux+Pet+%26+Pro+Ave+Pet+%26+Centro+Terap%C3%AAutico+Via+Lux/data=!4m7!3m6!1s0x94cc3425c355e4c3:0xbc89f00d68d429d7!8m2!3d-23.2024389!4d-45.9530589!16s%2Fg%2F1q66xqcms!19sChIJw-RVwyU0zJQR1ynUaA3wibw?authuser=0&hl=pt-BR&rclk=1,,google_maps_scraper
78ab16207935a495,Aparcamiento Urbanova,"7FRH+3Q, 03008 Alicante, Espanha",38.2901416,-0.5205343,,,,,"3,7",37,Estacionamento,,https://www.google.com/maps/place/Aparcamiento+Urbanova/data=!4m7!3m6!1s0xd6249000a54fdcb:0xb86744a1459525b3!8m2!3d38.2901416!4d-0.5205343!16s%2Fg%2F11w3tzlznb!19sChIJy_1UCgBJYg0RsyWVRaFEZ7g?authuser=0&hl=pt-BR&rclk=1,,google_maps_scraper
76dd58bb37aa71fa,Armazém da Construção,"Av. Ironman Victor Garrido, 41 - Urbanova, São José dos Campos - SP, 12244-392, Brasil",-23.2032923,-45.9457912,+55 12 3949-1599,Mostrar horário de funcionamento da semana,,,"3,1",31,Loja de materiais de construção,Fechado · Abre dom. às 09:00,https://www.google.com/maps/place/Armaz%C3%A9m+da+Constru%C3%A7%C3%A3o/data=!4m7!3m6!1s0x94cc342ded7a6c3d:0x55ba10da244be030!8m2!3d-23.2032923!4d-45.9457912!16s%2Fg%2F1q67kbfdt!19sChIJPWx67S00zJQRMOBLJNoQulU?authuser=0&hl=pt-BR&rclk=1,,google_maps_scraper
bf6d11e7d9faee18,Artioli Consultório Veterinário – Dermatologia e Oncologia – SJC,"Av. Shishima Hifumi, 2500 - Urbanova, São José dos Campos - SP, 12244-000, Brasil",-23.2037469,-45.9464721,+55 12 99100-7032,Mostrar horário de funcionamento da semana,,,"5,0",50,Veterinário,Fechado · Abre seg. às 08:00,https://www.google.com/maps/place/Artioli+Consult%C3%B3rio+Veterin%C3%A1rio+%E2%80%93+Dermatologia+e+Oncologia+%E2%80%93+SJC/data=!4m7!3m6!1s0x94cc35cedc065125:0x14f68d4592771fd4!8m2!3d-23.2037469!4d-45.9464721!16s%2Fg%2F11yywb9clq!19sChIJJVEG3M41zJQR1B93kkWN9hQ?authuser=0&hl=pt-BR&rclk=1,,google_maps_scraper
145af0a869cff7a7,Athlos Cardiologia Diagnóstica & Performance,"Em frente ao Parque Ribeirão Vermelho, Av. Maria de Lourdes Friggi, n° 381 - Sala 3 - Urbanova, São José dos Campos - SP, 12244-883, Brasil",-23.1997331,-45.9590242,+55 12 99183-9419,Mostrar horário de funcionamento da semana,athlos.com.br,,"5,0",50,Cardiologista,Fechado · Abre ter. às 09:00,https://www.google.com/maps/place/Athlos+Cardiologia+Diagn%C3%B3stica+%26+Performance/data=!4m7!3m6!1s0x94cc34207b72770d:0xedc126496cc7bafc!8m2!3d-23.1997331!4d-45.9590242!16s%2Fg%2F11t6hh6h4r!19sChIJDXdyeyA0zJQR_LrHbEkmwe0?authuser=0&hl=pt-BR&rclk=1,,google_maps_scraper
35dd29bcf896229c,Banca Urbanova,"Praça Fukuoka - Urbanova, São José dos Campos - SP, 12244-140, Brasil",-23.1951567,-45.9326426,+55 11 98998-0285,Mostrar horário de funcionamento da semana,facebook.com,,"4,8",48,Banca de jornais,Fechado · Abre às 12:00,https://www.google.com/maps/place/Banca+Urbanova/data=!4m7!3m6!1s0x94cc35d0a858b5d9:0xbcb6438c521181fd!8m2!3d-23.1951567!4d-45.9326426!16s%2Fg%2F11hcvtngsl!19sChIJ2bVYqNA1zJQR_YERUoxDtrw?authuser=0&hl=pt-BR&rclk=1,,google_maps_scraper
ed893ba548c5c98a,Bandeirantes | Tudo para Construção,"Av. Shishima Hifumi, 1910 - Urbanova, São José dos Campos - SP, 12244-000, Brasil",-23.2035625,-45.9410232,+55 12 3949-1244,Fechado · Abre seg. às 07:30·Outros horários,bandeirantesconstrucao.com.br,,"4,6",46,Loja de materiais de construção,,https://www.google.com/maps/place/Bandeirantes+%7C+Tudo+para+Constru%C3%A7%C3%A3o/data=!4m7!3m6!1s0x94cc35cd399544f9:0x592ea65727666283!8m2!3d-23.2035625!4d-45.9410232!16s%2Fg%2F11h0c4h7c!19sChIJ-USVOc01zJQRg2JmJ1emLlk?authuser=0&hl=pt-BR&rclk=1,,google_maps_scraper
dfec43b57a8a4061,Bar do Oreia,"Av. Shishima Hifumi, 2990 - Urbanova IV, São José dos Campos - SP, 12244-000, Brasil",-23.2050518,-45.9512538,,Mostrar horário de funcionamento da semana,instagram.com,,"5,0",50,Bar,Fecha em breve · 00:00 · Abre dom. às 15:00,https://www.google.com/maps/place/Bar+do+Oreia/data=!4m7!3m6!1s0x94cc358e947a710d:0xf6d26f5e8d84ce3e!8m2!3d-23.2050518!4d-45.9512538!16s%2Fg%2F11lcjbpn5q!19sChIJDXF6lI41zJQRPs6EjV5v0vY?authuser=0&hl=pt-BR&rclk=1,,google_maps_scraper
789344a04dd8f7c5,Bar e Lava Rápido Pit Stop,"Av. Shishima Hifumi, 3320 - Urbanova, São José dos Campos - SP, 12244-000, Brasil",-23.206919,-45.9531833,+55 12 3302-3273,Mostrar horário de funcionamento da semana,,,"4,7",47,Lava-rápido,Fecha em breve · 23:59 · Abre seg. às 08:00,https://www.google.com/maps/place/Bar+e+Lava+R%C3%A1pido+Pit+Stop/data=!4m7!3m6!1s0x94cc343ace67e93b:0x998f1774cf9d7ea8!8m2!3d-23.206919!4d-45.9531833!16s%2Fg%2F1q66df448!19sChIJO-lnzjo0zJQRqH6dz3QXj5k?authuser=0&hl=pt-BR&rclk=1,,google_maps_scraper
2b4ddd5d1704f7df,Barbaresco Express Urbanova,"Av. Shishima Hifumi, 2101 - Urbanova, São José dos Campos - SP, 12244-000, Brasil",-23.2040245,-45.9405277,+55 12 99127-4268,Mostrar horário de funcionamento da semana,l1nk.dev,,"3,9",39,Restaurante,Fechado · Abre dom. às 11:00,https://www.google.com/maps/place/Barbaresco+Express+Urbanova/data=!4m7!3m6!1s0x94cc35a1c57993b3:0xc11711354c1caedd!8m2!3d-23.2040245!4d-45.9405277!16s%2Fg%2F11j_82wc57!19sChIJs5N5xaE1zJQR3a4cTDURF8E?authuser=0&hl=pt-BR&rclk=1,,google_maps_scraper
ff52bc4d674cebc7,Barbearia Urbanova,"Av. Ironman Victor Garrido, 132 - Urbanova, São José dos Campos - SP, 12244-392, Brasil",-23.2024144,-45.945394,+55 12 98163-0094,Mostrar horário de funcionamento da semana,revistaurbanova.com.br,,"5,0",50,Barbearia,Fechado · Abre seg. às 08:30,https://www.google.com/maps/place/Barbearia+Urbanova/data=!4m7!3m6!1s0x94cc342db8b1ec09:0x2d3f0e77f1163f2c!8m2!3d-23.2024144!4d-45.945394!16s%2Fg%2F1q66w6yv1!19sChIJCeyxuC00zJQRLD8W8XcOPy0?authuser=0&hl=pt-BR&rclk=1,,google_maps_scraper
909bd3d62f47bc58,Bear Box Urbanova,"Rua Antônio Alves Magalhães, 50 - Urbanova, São José dos Campos - SP, 12244-855, Brasil",-23.2031468,-45.9557221,+55 12 98186-3546,,instagram.com,,"5,0",50,Academia,Permanentemente fechado,https://www.google.com/maps/place/Bear+Box+Urbanova/data=!4m7!3m6!1s0x94cc3508f2f805ff:0xe4b1b434fcd74da2!8m2!3d-23.2031468!4d-45.9557221!16s%2Fg%2F11qbny35kv!19sChIJ_wX48gg1zJQRok3X_DS0seQ?authuser=0&hl=pt-BR&rclk=1,,google_maps_scraper
158140d0a1327ebe,Beauty Care by Ro Pinheiro || Estética Facial e Corporal || São José dos Campos,"R. Rui Sérgio Rodrigues de Moura, 1113 - Urbanova, São José dos Campos - SP, 12244-465, Brasil",-23.1975089,-45.9403795,+55 12 98273-8314,Mostrar horário de funcionamento da semana,beautybyropinheiro.wixsite.com,,"5,0",50,Centro de saúde e beleza,Fechado · Abre seg. às 09:00,https://www.google.com/maps/place/Beauty+Care+by+Ro+Pinheiro+%7C%7C+Est%C3%A9tica+Facial+e+Corporal+%7C%7C+S%C3%A3o+Jos%C3%A9+dos+Campos/data=!4m7!3m6!1s0x94cc358288610ae5:0xcf0175f968b7390!8m2!3d-23.1975089!4d-45.9403795!16s%2Fg%2F11g4d88b73!19sChIJ5QphiII1zJQRkHOLll8X8Aw?authuser=0&hl=pt-BR&rclk=1,,google_maps_scraper
dec3ac64156e1d31,BEL DOS MARMITEX,"Faculdade Univap - Av. Shishima Hifumi, 2911 - Urbanova, São José dos Campos - SP, 12244-000, Brasil",-23.205458,-45.9507053,+55 12 98155-7125,,,,"4,0",40,Fornecedor de alimentos e bebidas para catering,Temporariamente fechado,https://www.google.com/maps/place/BEL+DOS+MARMITEX/data=!4m7!3m6!1s0x94cc3574d12a5ecb:0x1fb5941e80ec3fca!8m2!3d-23.205458!4d-45.9507053!16s%2Fg%2F11q2z07vdq!19sChIJy14q0XQ1zJQRyj_sgB6UtR8?authuser=0&hl=pt-BR&rclk=1,,google_maps_scraper
4b407501b61c82a7,Berçário Moppe Bambini,"Av. Linneu de Moura, 1455 - Urbanova, São José dos Campos - SP, 12244-380, Brasil",-23.1926928,-45.9227644,+55 12 3949-9380,,moppe.com.br,,"5,0",50,Creche,Temporariamente fechado,https://www.google.com/maps/place/Ber%C3%A7%C3%A1rio+Moppe+Bambini/data=!4m7!3m6!1s0x94cc4a74d291b6f9:0xd14ea0f5aaa4e21d!8m2!3d-23.1926928!4d-45.9227644!16s%2Fg%2F11bzwm9s9_!19sChIJ-baR0nRKzJQRHeKkqvWgTtE?authuser=0&hl=pt-BR&rclk=1,,google_maps_scraper
261f1c92fa0f955e,Best Center São José dos Campos - Urbanova,"R. Ironman Victor Garrido x, R. Conrado Cruz - Urbanova II, São José dos Campos - SP, 12244-392, Brasil",-23.2005617,-45.9476819,+55 11 94147-6910,,bestcenter.com.br,,"4,5",45,Centro comercial,,https://www.google.com/maps/place/Best+Center+S%C3%A3o+Jos%C3%A9+dos+Campos+-+Urbanova/data=!4m7!3m6!1s0x94cc342eb9f1286b:0xde4da50965580d80!8m2!3d-23.2005617!4d-45.9476819!16s%2Fg%2F11cnn_p1gm!19sChIJayjxuS40zJQRgA1YZQmlTd4?authuser=0&hl=pt-BR&rclk=1,,google_maps_scraper
ab764ac21f9431a9,Bile Pet Vip,"Av. Shishima Hifumi, 30 - sala 5 térreo - Urbanova, São José dos Campos - SP, 12244-000, Brasil",-23.1905698,-45.9320509,+55 12 99104-4422,Mostrar horário de funcionamento da semana,,,"5,0",50,Banho e tosa,Fechado · Abre seg. às 09:00,https://www.google.com/maps/place/Bile+Pet+Vip/data=!4m7!3m6!1s0x94cc3598621b7849:0xa4ec63e2b6cd65e9!8m2!3d-23.1905698!4d-45.9320509!16s%2Fg%2F11svpc8bqk!19sChIJSXgbYpg1zJQR6WXNtuJj7KQ?authuser=0&hl=pt-BR&rclk=1,,google_maps_scraper
aadb3d3bb5405f24,Bloco 1 - FCSAC,"Avenida Shishima Hifumi, 2911, Urbanova, São José dos Campos",-23.2058772,-45.9510734,,,www.univap.br,,,,amenity:university,,,node/8731537011,osm_overpass
fa335b42a9e4c1e1,Bloco 10,"Avenida Shishima Hifumi, 2911, Urbanova, São José dos Campos",-23.2116821,-45.963567,(12) 3947-1006,,www.univap.br,,,,amenity:university,,,node/8731557818,osm_overpass
174ee070c1546d8a,Bloco 11 - IP&D I,"Avenida Shishima Hifumi, 2911, Urbanova, São José dos Campos",-23.2101408,-45.9563579,,,www.univap.br,,,,amenity:university,,,node/8731557817,osm_overpass
18c4b680a6021e11,Bloco 12 - IP&DII,"Avenida Shishima Hifumi, 2911, Urbanova, São José dos Campos",-23.2103643,-45.9567507,(12) 3947-1122,,www.univap.br,,,,amenity:university,,,node/8731537016,osm_overpass
0be28222258eae81,Bloco 2 - FCSAC,"Avenida Shishima Hifumi, 2911, Urbanova, São José dos Campos",-23.2048944,-45.9492732,(12) 3947-1202,,www.univap.br,,,,amenity:university,,,node/8731537013,osm_overpass
38437a45df169dc5,Bloco 3 - FEA,"Avenida Shishima Hifumi, 2911, Urbanova, São José dos Campos",-23.205405,-45.9492945,(12) 3947-1008,,www.univap.br,,,,amenity:university,,,node/8731537014,osm_overpass
7457217ecfd871ce,Bloco 4 - Odontologia,"Avenida Shishima Hifumi, 2911', Urbanova, São José dos Campos",-23.2052121,-45.9501977,(12) 3947-1016,,www.univap.br,,,,amenity:university,,,node/8731537012,osm_overpass
05c9129cd90d4fcc,Bloco 5 - Setores Administrativos FVE/Univap,"Avenida Shishima Hifumi, 2911, Urbanova, São José dos Campos",-23.2059117,-45.9502347,,,www.univap.br,,,,amenity:university,,,node/8731537015,osm_overpass
ea6e0c8155ba89a3,Bloco 6,"Avenida Shishima Hifumi, 2911, Urbanova, São José dos Campos",-23.2085698,-45.9533396,(12) 3947-1028,,www.univap.br,,,,office:educational_institution,,,way/335925018,osm_overpass
4a1cc2356f2003ea,Bloco 7,"Avenida Shishima Hifumi, 2911, Urbanova, São José dos Campos",-23.2090621,-45.9537772,(12) 3947-1015,,www.univap.br,,,,office:educational_institution,,,way/335925014,osm_overpass
2de3d99bae957614,Bloco 8,"Avenida Shishima Hifumi, 2911, Urbanova, São José dos Campos",-23.2080282,-45.9523499,,,www.univap.br,,,,amenity:university,,,node/8731537010,osm_overpass
1f5c6c1930df9fe2,"Bloco 9 - FCS, FCSAC","Avenida Shishima Hifumi, 2911, Urbanova, São José dos Campos",-23.2090577,-45.9531358,(12) 3947-1219,,www.univap.br,,,,office:educational_institution,,,way/335925016,osm_overpass
4fbde84dc14fc809,Boulevard Vernon,"R. José Vieira Lopes da Costa, 66 - Urbanova, São José dos Campos - SP, 12244-122, Brasil",-23.1825278,-45.9514553,+55 12 99654-7410,Mostrar horário de funcionamento da semana,,,"4,3",43,Centro comercial,Fechado · Abre seg. às 06:00,https://www.google.com/maps/place/Boulevard+Vernon/data=!4m7!3m6!1s0x94cc377d43150181:0x62598bc02952d5e7!8m2!3d-23.1825278!4d-45.9514553!16s%2Fg%2F11y9zg9z7y!19sChIJgQEVQ303zJQR59VSKcCLWWI?authuser=0&hl=pt-BR&rclk=1,,google_maps_scraper
8468713a3ccc00b5,Box car,"Av. Shishima Hifumi, 1310 - Urbanova, São José dos Campos - SP, 12244-000, Brasil",-23.2027121,-45.9398794,,,,,"4,0",40,Lava-rápido,,https://www.google.com/maps/place/Box+car/data=!4m7!3m6!1s0x94cc3500274ed7e3:0x6d19a0e9301ef2aa!8m2!3d-23.2027121!4d-45.9398794!16s%2Fg%2F11w49rztpn!19sChIJ49dOJwA1zJQRqvIeMOmgGW0?authuser=0&hl=pt-BR&rclk=1,,google_maps_scraper
a458030f8e831333,Bumo Produtos de Limpeza,"Av. João Paulo ||, 651 - Urbanova, São José dos Campos - SP, 12244-597, Brasil",-23.2016326,-45.9567132,+55 12 99683-7329,Fechado · Abre seg. às 08:00·Outros horários,instagram.com,,"5,0",50,Fornecedor de produtos de limpeza,,https://www.google.com/maps/place/Bumo+Produtos+de+Limpeza/data=!4m7!3m6!1s0x94cc3583ee637011:0xf24e56aa31eb3f06!8m2!3d-23.2016326!4d-45.9567132!16s%2Fg%2F11x1ntl7rf!19sChIJEXBj7oM1zJQRBj_rMapWTvI?authuser=0&hl=pt-BR&rclk=1,,google_maps_scraper
f94fa60ee93ef470,Casa Animal Pet Shop,"Av. Shishima Hifumi, 2730 - Urbanova, São José dos Campos - SP, 12244-000, Brasil",-23.1983833,-45.9351529,+55 12 99660-9501,Mostrar horário de funcionamento da semana,facebook.com,,"4,7",47,Pet Shop,Fechado · Abre seg. às 08:00,https://www.google.com/maps/place/Casa+Animal+Pet+Shop/data=!4m7!3m6!1s0x94cc354e4f519bef:0x420737479540eabf!8m2!3d-23.1983833!4d-45.9351529!16s%2Fg%2F11mx7bkqhw!19sChIJ75tRT041zJQRv-pAlUc3B0I?authuser=0&hl=pt-BR&rclk=1,,google_maps_scraper
559c073db3114475,Casa de Bolos Urbanova SJC,"Av. Ironman Victor Garrido, 110 - Urbanova, São José dos Campos - SP, 12244-392, Brasil",-23.2026239,-45.9454888,+55 12 4141-2340,Mostrar horário de funcionamento da semana,casadebolos.com.br,,"4,5",45,Loja de bolos,Fechado · Abre seg. às 08:30,https://www.google.com/maps/place/Casa+de+Bolos+Urbanova+SJC/data=!4m7!3m6!1s0x94cc3506dd7f2ecd:0x57e967b0a4e2dd8c!8m2!3d-23.2026239!4d-45.9454888!16s%2Fg%2F11h56ccbf_!19sChIJzS5_3QY1zJQRjN3ipLBn6Vc?authuser=0&hl=pt-BR&rclk=1,,google_maps_scraper
a6f15a125f12bf9e,"Casa do Construtor São José dos Campos (Urbanova V) - Aluguel de Equipamentos, Máquinas e Ferramentas","Av. Antônio Widmer, Sala 04, Nº 841 - Urbanova V, São José dos Campos - SP, 12244-873, Brasil",-23.2023774,-45.9530837,+55 12 3949-2998,Mostrar horário de funcionamento da semana,casadoconstrutor.com.br,,"4,9",49,Serviço de locação de equipamentos para construção civil,Fechado · Abre seg. às 07:30,"https://www.google.com/maps/place/Casa+do+Construtor+S%C3%A3o+Jos%C3%A9+dos+Campos+%28Urbanova+V%29+-+Aluguel+de+Equipamentos,+M%C3%A1quinas+e+Ferramentas/data=!4m7!3m6!1s0x94cc3517ee045789:0x2d85c32f1aefae41!8m2!3d-23.2023774!4d-45.9530837!16s%2Fg%2F11vyhg40lm!19sChIJiVcE7hc1zJQRQa7vGi_DhS0?authuser=0&hl=pt-BR&rclk=1",,google_maps_scraper
d7b82a5b9f37ba32,CEDAR PLAZA URBANOVA,"Av. João Paulo ||, 300 - Urbanova III, São José dos Campos - SP, 12244-510, Brasil",-23.2022351,-45.9516908,,Mostrar horário de funcionamento da semana,,,,,Shopping center,Fechado · Abre às 07:00,https://www.google.com/maps/place/CEDAR+PLAZA+URBANOVA/data=!4m7!3m6!1s0x94cc35004363d85b:0xf755a5cf92a09a0d!8m2!3d-23.2022351!4d-45.9516908!16s%2Fg%2F11z1zsh5sc!19sChIJW9hjQwA1zJQRDZqgks-lVfc?authuser=0&hl=pt-BR&rclk=1,,google_maps_scraper
c478697fd5556869,CEN - Curso de Ciências Biológicas,"Avenida Shishima Hifumi, 2911, Urbanova, São José dos Campos",-23.2108024,-45.9644762,,,,,,,office:educational_institution,,,node/8731818876,osm_overpass
56d5ad4090978688,Centro Educacional Urbanova,"Av. João Paulo ||, 65 - Urbanova, São José dos Campos - SP, 12244-597, Brasil",-23.2035741,-45.9502461,,,,,,,Instituição educacional,Permanentemente fechado,https://www.google.com/maps/place/Centro+Educacional+Urbanova/data=!4m7!3m6!1s0x94cc342fa233be9f:0xbbadfe7e30d97638!8m2!3d-23.2035741!4d-45.9502461!16s%2Fg%2F11n6_nscyl!19sChIJn74zoi80zJQROHbZMH7-rbs?authuser=0&hl=pt-BR&rclk=1,,google_maps_scraper
990bbd0dcdada808,Centro Odontológico Urbanova,"Av. Shishima Hifumi, 1888 - Sl 08 - Urbanova, São José dos Campos - SP, 02244-000, Brasil",-23.199982,-45.9369039,+55 12 3949-2718,Mostrar horário de funcionamento da semana,facebook.com,,"4,2",42,Dentista,Fechado · Abre seg. às 08:00,https://www.google.com/maps/place/Centro+Odontol%C3%B3gico+Urbanova/data=!4m7!3m6!1s0x94cc357275f15dd3:0xd4da02ef16207a9f!8m2!3d-23.199982!4d-45.9369039!16s%2Fg%2F1q66093kk!19sChIJ013xdXI1zJQRn3ogFu8C2tQ?authuser=0&hl=pt-BR&rclk=1,,google_maps_scraper
b3a3759050ea2964,Chica pet,"R. Albino dos Anjos Conrado, 61 - Urbanova V, São José dos Campos - SP, 12244-850, Brasil",-23.2026193,-45.9530373,+55 12 3341-1003,Mostrar horário de funcionamento da semana,instagram.com,,"5,0",50,Pet Shop,Fechado · Abre seg. às 09:00,https://www.google.com/maps/place/Chica+pet/data=!4m7!3m6!1s0x94cc35f4f80ba5f1:0xb9c59445e80f438d!8m2!3d-23.2026193!4d-45.9530373!16s%2Fg%2F11q4dl7dm5!19sChIJ8aUL-PQ1zJQRjUMP6EWUxbk?authuser=0&hl=pt-BR&rclk=1,,google_maps_scraper
215094684c2ab275,Chácara dos Lagos,"399, R. Afonsina Peloia Simão, 347 - Urbanova, São José dos Campos - SP, 12244-020, Brasil",-23.1920281,-45.93614,,,,,"4,3",43,Complexo residencial,,https://www.google.com/maps/place/Ch%C3%A1cara+dos+Lagos/data=!4m7!3m6!1s0x94cc35d6167c0161:0x293e292166e0dd40!8m2!3d-23.1920281!4d-45.93614!16s%2Fg%2F11b8v9lns7!19sChIJYQF8FtY1zJQRQN3gZiEpPik?authuser=0&hl=pt-BR&rclk=1,,google_maps_scraper
eeb68c03ddf010c8,Chácara Serimbura,"Condomínio Chácara Serimbura - Urbanova, São José dos Campos - SP, 12244-014, Brasil",-23.2022014,-45.9311318,,Mostrar horário de funcionamento da semana,,,"4,6",46,Complexo residencial,Aberto 24 horas,https://www.google.com/maps/place/Ch%C3%A1cara+Serimbura/data=!4m7!3m6!1s0x94cc35499976bba9:0x4b701702f3c0470f!8m2!3d-23.2022014!4d-45.9311318!16s%2Fg%2F11qzfkgx5t!19sChIJqbt2mUk1zJQRD0fA8wIXcEs?authuser=0&hl=pt-BR&rclk=1,,google_maps_scraper
ca937925ed77250a,"Cipax Laboratório Urbanova: Exames, Vacinas, Hemograma em São José dos Campos SP","Av. Shishima Hifumi, 2101 - Urbanova, São José dos Campos - SP, 12244-000, Brasil",-23.2039638,-45.9405069,+55 12 3203-0633,Mostrar horário de funcionamento da semana,cipax.com.br,,"3,6",36,Clínica especializada,Fechado · Abre seg. às 07:00,"https://www.google.com/maps/place/Cipax+Laborat%C3%B3rio+Urbanova:+Exames,+Vacinas,+Hemograma+em+S%C3%A3o+Jos%C3%A9+dos+Campos+SP/data=!4m7!3m6!1s0x94cc357ef6f40427:0xd368dff5b9978025!8m2!3d-23.2039638!4d-45.9405069!16s%2Fg%2F11jsmdcxzy!19sChIJJwT09n41zJQRJYCXufXfaNM?authuser=0&hl=pt-BR&rclk=1",,google_maps_scraper
7ecbe4304a398c93,Clan By Mauricio Studio de Beleza,"Av. Maria de Lourdes Friggi, 371 - Urbanova VII, São José dos Campos - SP, 12244-889, Brasil",-23.199707,-45.9588734,+55 12 98156-3056,Mostrar horário de funcionamento da semana,,,"5,0",50,Salão de Beleza,Fechado · Abre ter. às 09:00,https://www.google.com/maps/place/Clan+By+Mauricio+Studio+de+Beleza/data=!4m7!3m6!1s0x94cc35992977e4d1:0xf28a89aecc9e0e91!8m2!3d-23.199707!4d-45.9588734!16s%2Fg%2F11pd6lssv6!19sChIJ0eR3KZk1zJQRkQ6ezK6JivI?authuser=0&hl=pt-BR&rclk=1,,google_maps_scraper
595ed223b8b91b00,Clinica de fisioterapia G Fisio,"Av. Ironman Victor Garrido, 460 - Sala 3 e 4 - Urbanova, São José dos Campos - SP, 12244-392, Brasil",-23.2002573,-45.9471644,+55 12 99613-9396,Mostrar horário de funcionamento da semana,clinicagfisio.com.br,,"4,8",48,Clínica de Fisioterapia,Fechado · Abre seg. às 07:00,https://www.google.com/maps/place/Clinica+de+fisioterapia+G+Fisio/data=!4m7!3m6!1s0x94cc359d7ff0ae99:0x77e10a1710be672b!8m2!3d-23.2002573!4d-45.9471644!16s%2Fg%2F11rqw15z58!19sChIJma7wf501zJQRK2e-EBcK4Xc?authuser=0&hl=pt-BR&rclk=1,,google_maps_scraper
14e4463424224f3f,Clínica Veterinária - Grupo Estimacão - Unidade Urbanova,"Av. Antônio Widmer, 679 - Urbanova, São José dos Campos - SP, 12244-873, Brasil",-23.2026175,-45.9551199,+55 12 3341-5501,Mostrar horário de funcionamento da semana,grupoestimacaosjc.com.br,,"4,9",49,Hospital Veterinário,Fechado · Abre seg. às 09:00,https://www.google.com/maps/place/Cl%C3%ADnica+Veterin%C3%A1ria+-+Grupo+Estimac%C3%A3o+-+Unidade+Urbanova/data=!4m7!3m6!1s0x94cc35a7a494dfc1:0x4b1c905bf4537da8!8m2!3d-23.2026175!4d-45.9551199!16s%2Fg%2F11y30zx1zc!19sChIJwd-UpKc1zJQRqH1T9FuQHEs?authuser=0&hl=pt-BR&rclk=1,,google_maps_scraper
4bc1adb76ef777d9,Colégio Ciclo Urbanova,"Av. João Paulo ||, 85 - Urbanova, São José dos Campos - SP, 12244-597, Brasil",-23.2035137,-45.9503717,+55 12 3949-0359,Mostrar horário de funcionamento da semana,colegiociclo.com.br,,,,Escola de educação geral,Fechado · Abre seg. às 07:00,https://www.google.com/maps/place/Col%C3%A9gio+Ciclo+Urbanova/data=!4m7!3m6!1s0x94cc3532525ffca5:0x2ef5c32db57fd7!8m2!3d-23.2035137!4d-45.9503717!16s%2Fg%2F11vs__j9v0!19sChIJpfxfUjI1zJQR13-1LcP1LgA?authuser=0&hl=pt-BR&rclk=1,,google_maps_scraper
df3403e00f341703,Colégio Futura Geração,"R. Benedito Machado Figueiredo, 21 - Urbanova I, São José dos Campos - SP, 12244-030, Brasil",-23.1906202,-45.932615,+55 12 99719-9158,Mostrar horário de funcionamento da semana,colegiofuturageracao.com.br,,,,Escola de educação geral,Fechado · Abre seg. às 07:00,https://www.google.com/maps/place/Col%C3%A9gio+Futura+Gera%C3%A7%C3%A3o/data=!4m7!3m6!1s0x94cc35d81cb81777:0xfc8d59c072b3e684!8m2!3d-23.1906202!4d-45.932615!16s%2Fg%2F1yfjffw_x!19sChIJdxe4HNg1zJQRhOazcsBZjfw?authuser=0&hl=pt-BR&rclk=1,,google_maps_scraper
9929d8e00d2f90e1,Colégio Mater Dei,"Avenida, Tv. Lineu de Moura, 1055 - Urbanova, São José dos Campos - SP, 12244-380, Brasil",-23.197639,-45.917271,+55 12 3878-5151,Mostrar horário de funcionamento da semana,colegiomaterdei.net,,,,Escola particular,Fechado · Abre seg. às 07:00,https://www.google.com/maps/place/Col%C3%A9gio+Mater+Dei/data=!4m7!3m6!1s0x94cc35e7a4bb3a1f:0xbad1e021ccee261b!8m2!3d-23.197639!4d-45.917271!16s%2Fg%2F1tjs618r!19sChIJHzq7pOc1zJQRGybuzCHg0bo?authuser=0&hl=pt-BR&rclk=1,,google_maps_scraper
c8e56361317f467f,Colégio Solare,"Av. Possidônio José de Freitas, 1401 - Urbanova, São José dos Campos - SP, 12244-010, Brasil",-23.1969414,-45.9426935,+55 12 3949-1044,Mostrar horário de funcionamento da semana,colegiosolare.com.br,,,,Escola de educação geral,Fechado · Abre seg. às 07:00,https://www.google.com/maps/place/Col%C3%A9gio+Solare/data=!4m7!3m6!1s0x94cc342b3c0c7941:0x2c9e6fc71acec1a8!8m2!3d-23.1969414!4d-45.9426935!16s%2Fg%2F11dxcrpffn!19sChIJQXkMPCs0zJQRqMHOGsdvniw?authuser=0&hl=pt-BR&rclk=1,,google_maps_scraper
812643a44993a691,Companhia da Bola SJC | Quadras Society,"Tv. Lineu de Moura, 528 - Urbanova, São José dos Campos - SP, 12244-381, Brasil",-23.1897607,-45.9199531,+55 12 98129-0005,Mostrar horário de funcionamento da semana,ciadabolasjc.com.br,,"4,3",43,Quadra de esportes,Fechado · Abre às 09:00,https://www.google.com/maps/place/Companhia+da+Bola+SJC+%7C+Quadras+Society/data=!4m7!3m6!1s0x94cc35e131c4d955:0xd9106a2efdfec2fd!8m2!3d-23.1897607!4d-45.9199531!16s%2Fg%2F11f045hslv!19sChIJVdnEMeE1zJQR_cL-_S5qENk?authuser=0&hl=pt-BR&rclk=1,,google_maps_scraper
65e809479a48e86f,Condomínio Alphaville 2 São José dos Campos,"R. Cabriúva, 200 - Urbanova, São José dos Campos - SP, 12244-047, Brasil",-23.1854151,-45.9431898,+55 12 3912-5220,Mostrar horário de funcionamento da semana,,,"4,6",46,Complexo de condomínio,Aberto 24 horas,https://www.google.com/maps/place/Condom%C3%ADnio+Alphaville+2+S%C3%A3o+Jos%C3%A9+dos+Campos/data=!4m7!3m6!1s0x94cc3687944caf89:0xb4556aaa5d743a12!8m2!3d-23.1854151!4d-45.9431898!16s%2Fg%2F11c3tr8kql!19sChIJia9MlIc2zJQREjp0XapqVbQ?authuser=0&hl=pt-BR&rclk=1,,google_maps_scraper
074e97a5e65dc3c5,Condomínio Reserva Urbanova,"Av. João Paulo ||, 28 - Urbanova, São José dos Campos - SP, 12244-597, Brasil",-23.2038347,-45.9492579,,,,,"4,3",43,Complexo de condomínio,,https://www.google.com/maps/place/Condom%C3%ADnio+Reserva+Urbanova/data=!4m7!3m6!1s0x94cc356949d89487:0x4604dc801918a12!8m2!3d-23.2038347!4d-45.9492579!16s%2Fg%2F11q8xd9q4p!19sChIJh5TYSWk1zJQREoqRAchNYAQ?authuser=0&hl=pt-BR&rclk=1,,google_maps_scraper
9612c356820835aa,Condomínio Vivant Urbanova,"São José dos Campos, SP, 12244-341, Brasil",-23.1818348,-45.9532877,,,imoveisaquarius.com.br,,"4,8",48,Complexo de condomínio,,https://www.google.com/maps/place/Condom%C3%ADnio+Vivant+Urbanova/data=!4m7!3m6!1s0x94cc37efad5a7c2f:0x3805dc7de8c0d62!8m2!3d-23.1818348!4d-45.9532877!16s%2Fg%2F11q8g5qh18!19sChIJL3xare83zJQRYg2M3sddgAM?authuser=0&hl=pt-BR&rclk=1,,google_maps_scraper
f2067686e2fdfd3f,Conexão Vale Açaí,"Av. Shishima Hifumi, 2182 - Urbanova, São José dos Campos - SP, 12244-000, Brasil",-23.2037638,-45.9436846,+55 12 3949-2991,Mostrar horário de funcionamento da semana,instagram.com,,"4,8",48,Loja de açaí,Fechado · Abre dom. às 14:00,https://www.google.com/maps/place/Conex%C3%A3o+Vale+A%C3%A7a%C3%AD/data=!4m7!3m6!1s0x94cc358c6d0e3535:0xe9bbece018cac41f!8m2!3d-23.2037638!4d-45.9436846!16s%2Fg%2F11jlgj63m3!19sChIJNTUObYw1zJQRH8TKGODsu-k?authuser=0&hl=pt-BR&rclk=1,,google_maps_scraper
c3431362ff11e011,Container BROWe!,"Av. Shishima Hifumi, 2101 - Urbanova, São José dos Campos - SP, Brasil",-23.2043774,-45.9408572,+55 12 99601-7453,Mostrar horário de funcionamento da semana,linktr.ee,,"4,9",49,Bar,Fechado · Abre dom. às 10:00,https://www.google.com/maps/place/Container+BROWe!/data=!4m7!3m6!1s0x94cc4b7dd195603b:0xae7c738203400f1b!8m2!3d-23.2043774!4d-45.9408572!16s%2Fg%2F11nnv0qm9t!19sChIJO2CV0X1LzJQRGw9AA4JzfK4?authuser=0&hl=pt-BR&rclk=1,,google_maps_scraper
fec6782eb37880b6,Container BROWe!,"Avenida Shishima Hifumi, 2101, Urbanova, São José dos Campos",-23.2044012,-45.9408739,,,https://linktr.ee/browecervejariasjc,,,,amenity:bar,,,way/1391437975,osm_overpass
f8370db21022e520,CycleX Bike Shop Urbanova,"Avenida Maria de Lourdes Friggi, 371",-23.1997369,-45.9588522,012997399926,"Mo, We-Fr 08:00-18:00; Sa-Su 07:00-14:00; Tu 08:00-21:00",https://www.cyclexsports.com.br/,,,,shop:bicycle,,,way/1134515922,osm_overpass
09ff5268298e68ec,D'ANGELO PIZZA,"Av. Ironman Victor Garrido, 651 - Lojas 1, 3 e 4 - Urbanova, São José dos Campos - SP, 12244-540, Brasil",-23.2018154,-45.949527,+55 12 3600-2506,Mostrar horário de funcionamento da semana,dangelopizza.com.br,,"4,6",46,Pizzaria,Fechado · Abre dom. às 18:00,https://www.google.com/maps/place/D%27ANGELO+PIZZA/data=!4m7!3m6!1s0x94cc353d10c256af:0xbe7c79c9779c48e3!8m2!3d-23.2018154!4d-45.949527!16s%2Fg%2F11pw9q6ty2!19sChIJr1bCED01zJQR40icd8l5fL4?authuser=0&hl=pt-BR&rclk=1,,google_maps_scraper
8728201f30aa4d7e,D7 Bebidas,"Av. Shishima Hifumi, 3046 - Urbanova, São José dos Campos - SP, 12244-390, Brasil",-23.2054069,-45.9517559,,,,,"5,0",50,Loja de bebidas,,https://www.google.com/maps/place/D7+Bebidas/data=!4m7!3m6!1s0x94cc3500039fa19b:0x93e1ec1e6f168175!8m2!3d-23.2054069!4d-45.9517559!16s%2Fg%2F11vwqdqdry!19sChIJm6GfAwA1zJQRdYEWbx7s4ZM?authuser=0&hl=pt-BR&rclk=1,,google_maps_scraper
5fb8f7199e43ca6c,Daisa Imports,"Av. Linneu de Moura, 1711 - 1 andar - Urbanova, São José dos Campos - SP, 12244-380, Brasil",-23.1956871,-45.9197626,+55 12 99616-9381,Mostrar horário de funcionamento da semana,daisaimports.com.br,,,,Concessionária,Fechado · Abre seg. às 09:00,https://www.google.com/maps/place/Daisa+Imports/data=!4m7!3m6!1s0x94cc350045f1164b:0x7e5b03045a5d427e!8m2!3d-23.1956871!4d-45.9197626!16s%2Fg%2F11z2tnhtcb!19sChIJSxbxRQA1zJQRfkJdWgQDW34?authuser=0&hl=pt-BR&rclk=1,,google_maps_scraper
79dab552bea5b00e,DEMAX Imóveis| Alto Padrão,"Avenida Jorge Cury, 172 - Urbanova, São José dos Campos - SP, 12244-625, Brasil",-23.1842713,-45.9529177,+55 12 99756-7244,Mostrar horário de funcionamento da semana,demaximoveis.com,,"5,0",50,Imobiliária,Aberto 24 horas,https://www.google.com/maps/place/DEMAX+Im%C3%B3veis%7C+Alto+Padr%C3%A3o/data=!4m7!3m6!1s0x94cc37d53f2ca29d:0x4a59703c13c0da28!8m2!3d-23.1842713!4d-45.9529177!16s%2Fg%2F11lddmppcw!19sChIJnaIsP9U3zJQRKNrAEzxwWUo?authuser=0&hl=pt-BR&rclk=1,,google_maps_scraper
3bfcc612b3d0541f,Dentista Thais Arbex,"Av. Shishima Hifumi, 1880 - Urbanova, São José dos Campos - SP, 12244-390, Brasil",-23.1999773,-45.9368958,,,,,"5,0",50,Dentista,,https://www.google.com/maps/place/Dentista+Thais+Arbex/data=!4m7!3m6!1s0x94cc35000ea3e71b:0x7e894a1cf44dc362!8m2!3d-23.1999773!4d-45.9368958!16s%2Fg%2F11xgrbmycf!19sChIJG-ejDgA1zJQRYsNN9BxKiX4?authuser=0&hl=pt-BR&rclk=1,,google_maps_scraper
fe7097d8a390c1f8,Depósito RT - Materiais de Construção- Urbanova SJC,"Av. Shishima Hifumi, 1616 - Urbanova, São José dos Campos - SP, 12244-000, Brasil",-23.201765,-45.9389686,+55 12 98275-1100,Mostrar horário de funcionamento da semana,depositort.com.br,,"4,3",43,Loja de materiais de construção,Fechado · Abre seg. às 07:30,https://www.google.com/maps/place/Dep%C3%B3sito+RT+-+Materiais+de+Constru%C3%A7%C3%A3o-+Urbanova+SJC/data=!4m7!3m6!1s0x94cc35cd7593872b:0x279e1f0bb076fc25!8m2!3d-23.201765!4d-45.9389686!16s%2Fg%2F1ptxkxpjp!19sChIJK4eTdc01zJQRJfx2sAsfnic?authuser=0&hl=pt-BR&rclk=1,,google_maps_scraper
91fdf165f82cfcd4,Destake&Arte: Elegância e Inovação que Transformam o Ambiente,"Av. Paratehy, 45 - Urbanova, São José dos Campos - SP, 12244-563, Brasil",-23.1948155,-45.9608772,+55 12 99203-0297,Fechado · Abre seg. às 07:30·Outros horários,,,"4,8",48,Designer de interiores,,https://www.google.com/maps/place/Destake%26Arte:+Eleg%C3%A2ncia+e+Inova%C3%A7%C3%A3o+que+Transformam+o+Ambiente/data=!4m7!3m6!1s0x94cc4ba63cf8b4c3:0x64d63d3b6120233b!8m2!3d-23.1948155!4d-45.9608772!16s%2Fg%2F11pq8l0514!19sChIJw7T4PKZLzJQROyMgYTs91mQ?authuser=0&hl=pt-BR&rclk=1,,google_maps_scraper
de3a96a776ab963f,Deu Rock Bar,"Av. Shishima Hifumi, 2892 - Urbanova, São José dos Campos - SP, 12244-000, Brasil",-23.2045274,-45.9505102,,Mostrar horário de funcionamento da semana,instagram.com,,"4,1",41,Bar,Aberto · Fecha seg. à 00:00,https://www.google.com/maps/place/Deu+Rock+Bar/data=!4m7!3m6!1s0x94cc350601bc0307:0x7c0b58bf69ff2e21!8m2!3d-23.2045274!4d-45.9505102!16s%2Fg%2F11t3hy9fcg!19sChIJBwO8AQY1zJQRIS7_ab9YC3w?authuser=0&hl=pt-BR&rclk=1,,google_maps_scraper
9bb348422f5ce48e,Diegão Espetinhos,"Av. Shishima Hifumi - Urbanova, São José dos Campos - SP, 12244-460, Brasil",-23.2035993,-45.9455052,+55 12 98295-9368,Mostrar horário de funcionamento da semana,,,"4,9",49,Churrascaria,Fechado · Abre seg. às 18:00,https://www.google.com/maps/place/Dieg%C3%A3o+Espetinhos/data=!4m7!3m6!1s0x94cc350c624e4339:0x7c231160da4b2fff!8m2!3d-23.2035993!4d-45.9455052!16s%2Fg%2F11k46v_zhc!19sChIJOUNOYgw1zJQR_y9L2mARI3w?authuser=0&hl=pt-BR&rclk=1,,google_maps_scraper
591367e3d06f5865,Doce Confeiteiro,"Av. Ironman Victor Garrido, 132 - Urbanova, São José dos Campos - SP, 12244-392, Brasil",-23.2023083,-45.9455759,+55 12 99776-9308,Mostrar horário de funcionamento da semana,,,"5,0",50,Confeitaria,Fechado · Abre ter. às 09:00,https://www.google.com/maps/place/Doce+Confeiteiro/data=!4m7!3m6!1s0x21e010354b2ceac3:0xa123eaafc1bfcb42!8m2!3d-23.2023083!4d-45.9455759!16s%2Fg%2F11rgv7p25_!19sChIJw-osSzUQ4CERQsu_wa_qI6E?authuser=0&hl=pt-BR&rclk=1,,google_maps_scraper
e1fa73fb4b53a019,Dolce Vitali,"Rua, Av. Ironman Victor Garrido, 460 - Urbanova, São José dos Campos - SP, 12244-392, Brasil",-23.2003739,-45.9471076,+55 12 98182-3709,Mostrar horário de funcionamento da semana,instagram.com,,"4,8",48,Confeitaria,Fechado · Abre seg. às 10:00,https://www.google.com/maps/place/Dolce+Vitali/data=!4m7!3m6!1s0x94cc4a70e7a8c083:0x110438343dd57b7f!8m2!3d-23.2003739!4d-45.9471076!16s%2Fg%2F11f3h9r6ys!19sChIJg8Co53BKzJQRf3vVPTQ4BBE?authuser=0&hl=pt-BR&rclk=1,,google_maps_scraper
2d15c1bc14d8c5d4,Dondoca Studio de Beleza e Spa,"Av. Shishima Hifumi, 70 - Urbanova, São José dos Campos - SP, 12244-392, Brasil",-23.1908951,-45.9320709,+55 12 3346-3336,Mostrar horário de funcionamento da semana,linktr.ee,,"4,7",47,Salão de Beleza,Fechado · Abre seg. às 08:00,https://www.google.com/maps/place/Dondoca+Studio+de+Beleza+e+Spa/data=!4m7!3m6!1s0x94cc342ec55ad90b:0xcd1f627da2ecb9ca!8m2!3d-23.1908951!4d-45.9320709!16s%2Fg%2F11dxct8_f_!19sChIJC9laxS40zJQRyrnson1iH80?authuser=0&hl=pt-BR&rclk=1,,google_maps_scraper
2159f0c00af45281,Dra. Ana Vladia Fernandes - Fonoaudióloga,"Av. Ironman Victor Garrido, 460 - Loja 8 - Urbanova, São José dos Campos - SP, 12244-392, Brasil",-23.2003539,-45.9471038,+55 12 98177-7770,Mostrar horário de funcionamento da semana,instagram.com,,"5,0",50,Fonoaudiólogo,Fechado · Abre seg. às 08:00,https://www.google.com/maps/place/Dra.+Ana+Vladia+Fernandes+-+Fonoaudi%C3%B3loga/data=!4m7!3m6!1s0x94cc35d706d81069:0x1a68aa6a596f72ca!8m2!3d-23.2003539!4d-45.9471038!16s%2Fg%2F11ty708vt0!19sChIJaRDYBtc1zJQRynJvWWqqaBo?authuser=0&hl=pt-BR&rclk=1,,google_maps_scraper
f697f9f301a2d6ef,"Dra. Kellen Valentim da Silva Bonfim, Nutricionista","R. Francisco Pandolfi, 563 - Sala 4 - Urbanova - Urbanova II, São José dos Campos - SP, 12244-491, Brasil",-23.2012785,-45.9486625,,Mostrar horário de funcionamento da semana,doctoralia.com.br,,"5,0",50,Nutricionista,Fechado · Abre seg. às 09:00,"https://www.google.com/maps/place/Dra.+Kellen+Valentim+da+Silva+Bonfim,+Nutricionista/data=!4m7!3m6!1s0x94cc355e3c87af17:0xcdcd10e621f43054!8m2!3d-23.2012785!4d-45.9486625!16s%2Fg%2F11rgbg1l6g!19sChIJF6-HPF41zJQRVDD0IeYQzc0?authuser=0&hl=pt-BR&rclk=1",,google_maps_scraper
5a731cd770d08e7b,Dra. Monica Fadul | Ginecologista em São José dos Campos - SJC | Clínica Vênus do Vale,"Av. Ironman Victor Garrido, 460 - Loja 8 - Urbanova, São José dos Campos - SP, 12244-392, Brasil",-23.2005386,-45.9471638,+55 12 97898-1698,Mostrar horário de funcionamento da semana,venusdovale.com.br,,"5,0",50,Ginecologista,Fechado · Abre seg. às 08:00,https://www.google.com/maps/place/Dra.+Monica+Fadul+%7C+Ginecologista+em+S%C3%A3o+Jos%C3%A9+dos+Campos+-+SJC+%7C+Cl%C3%ADnica+V%C3%AAnus+do+Vale/data=!4m7!3m6!1s0x94cc4be4f1895721:0x12986845627bcf84!8m2!3d-23.2005386!4d-45.9471638!16s%2Fg%2F11ny3rj7ng!19sChIJIVeJ8eRLzJQRhM97YkVomBI?authuser=0&hl=pt-BR&rclk=1,,google_maps_scraper
e03a58c37bb272b1,Dra. Talita Bortoluzzi,"Av, Tv. Lineu de Moura, 995 - Urbanova, São José dos Campos - SP, 12244-380, Brasil",-23.1928163,-45.9217741,+55 12 3924-4900,,,,,,Otorrinolaringologista,,https://www.google.com/maps/place/Dra.+Talita+Bortoluzzi/data=!4m7!3m6!1s0x94cc35e70cce5f97:0x93bcc55eb203460e!8m2!3d-23.1928163!4d-45.9217741!16s%2Fg%2F11j7qtnzdp!19sChIJl1_ODOc1zJQRDkYDsl7FvJM?authuser=0&hl=pt-BR&rclk=1,,google_maps_scraper
3b1698fe564ffb89,Droga Raia,"Av. Shishima Hifumi, 1280 - Urbanova I, São José dos Campos - SP, 12244-240, Brasil",-23.2030157,-45.9404448,+55 12 99654-1938,Mostrar horário de funcionamento da semana,,,"3,9",39,Farmácia,Fechado · Abre dom. às 07:00,https://www.google.com/maps/place/Droga+Raia/data=!4m7!3m6!1s0x94cc35cd7202ab87:0x45a3a22aa0618616!8m2!3d-23.2030157!4d-45.9404448!16s%2Fg%2F11f36vpytp!19sChIJh6sCcs01zJQRFoZhoCqio0U?authuser=0&hl=pt-BR&rclk=1,,google_maps_scraper
422ac732a473bbb9,Droga Raia Urbanova Alphaville,"Av. Possidônio José de Freitas, 111 - Urbanova, São José dos Campos - SP, 12244-010, Brasil",-23.1906815,-45.9328779,+55 12 99659-9182,Fechado · Abre dom. às 07:00·Outros horários,drogaraia.com.br,,"4,5",45,Farmácia,,https://www.google.com/maps/place/Droga+Raia+Urbanova+Alphaville/data=!4m7!3m6!1s0x94cc35efed5f01d5:0x8e32e43ccf593901!8m2!3d-23.1906815!4d-45.9328779!16s%2Fg%2F11v5sgwycf!19sChIJ1QFf7e81zJQRATlZzzzkMo4?authuser=0&hl=pt-BR&rclk=1,,google_maps_scraper
bca667495bbbc0f4,Drogaria São Paulo,"Av. Shishima Hifumi, 670 - Urbanova, São José dos Campos - SP, 12244-000, Brasil",-23.1955932,-45.9328706,+55 12 3949-1050,Mostrar horário de funcionamento da semana,drogariasaopaulo.com.br,,"3,8",38,Drogaria,Aberto 24 horas,https://www.google.com/maps/place/Drogaria+S%C3%A3o+Paulo/data=!4m7!3m6!1s0x94cc35d0a40e3aa9:0x24d8e9fe7f13a884!8m2!3d-23.1955932!4d-45.9328706!16s%2Fg%2F11f2y550fc!19sChIJqToOpNA1zJQRhKgTf_7p2CQ?authuser=0&hl=pt-BR&rclk=1,,google_maps_scraper
2779e4abade4db7f,Drogaria São Paulo - Urbanova,"Av. Antônio Widmer, 190 - Urbanova V, São José dos Campos - SP, 12244-873, Brasil",-23.2023272,-45.9552503,+55 12 99782-5214,Mostrar horário de funcionamento da semana,,,"4,3",43,Farmácia,Fechado · Abre dom. às 07:00,https://www.google.com/maps/place/Drogaria+S%C3%A3o+Paulo+-+Urbanova/data=!4m7!3m6!1s0x94cc3500242bbf49:0x41f1e78625721aa2!8m2!3d-23.2023272!4d-45.9552503!16s%2Fg%2F11xl8l5ts3!19sChIJSb8rJAA1zJQRohpyJYbn8UE?authuser=0&hl=pt-BR&rclk=1,,google_maps_scraper
196a3519c12dd146,Econolav - Lavanderia de Autoatendimento,"Av. Shishima Hifumi, 2500 - Urbanova, São José dos Campos - SP, 12244-000, Brasil",-23.2036855,-45.9465696,+55 12 99223-0249,Mostrar horário de funcionamento da semana,,,"4,9",49,Lavanderia automática,Fechado · Abre dom. às 06:00,https://www.google.com/maps/place/Econolav+-+Lavanderia+de+Autoatendimento/data=!4m7!3m6!1s0x94cc35b0a223c4e3:0x840ee879b5a49c2b!8m2!3d-23.2036855!4d-45.9465696!16s%2Fg%2F11v0k735ls!19sChIJ48QjorA1zJQRK5yktXnoDoQ?authuser=0&hl=pt-BR&rclk=1,,google_maps_scraper
9c7baa23e6e74680,Edusom Equipamentos - Auto Center,"Rua Antônio Alves Magalhães, 30 - Urbanova, São José dos Campos - SP, 12244-855, Brasil",-23.2032992,-45.9556996,+55 12 3922-0067,Mostrar horário de funcionamento da semana,edusom.net,,"4,7",47,Loja de som para carros,Fechado · Abre seg. às 09:00,https://www.google.com/maps/place/Edusom+Equipamentos+-+Auto+Center/data=!4m7!3m6!1s0x94cc4a155cd4611b:0xd11d034211f84446!8m2!3d-23.2032992!4d-45.9556996!16s%2Fg%2F1tmbx6xj!19sChIJG2HUXBVKzJQRRkT4EUIDHdE?authuser=0&hl=pt-BR&rclk=1,,google_maps_scraper
c68aef4a880b4f12,Eletrofer Materiais de Construção,"Av. João Paulo ||, 741 - Urbanova, São José dos Campos - SP, 12244-597, Brasil",-23.2007115,-45.9575882,+55 12 3936-6772,Mostrar horário de funcionamento da semana,lmeletrofer.com.br,,"4,2",42,Loja de materiais de construção,Fechado · Abre seg. às 07:30,https://www.google.com/maps/place/Eletrofer+Materiais+de+Constru%C3%A7%C3%A3o/data=!4m7!3m6!1s0x94cc4b3852bd6793:0xbc1b3237d7e138bd!8m2!3d-23.2007115!4d-45.9575882!16s%2Fg%2F11gxr2whc6!19sChIJk2e9UjhLzJQRvTjh1zcyG7w?authuser=0&hl=pt-BR&rclk=1,,google_maps_scraper
5ca179ac2bc5f090,Empório Santa Gula,"Av. Shishima Hifumi, 1200 - Urbanova, São José dos Campos - SP, 12244-000, Brasil",-23.2033651,-45.9407799,+55 12 3949-2193,Mostrar horário de funcionamento da semana,,,"4,5",45,Mercado,Fechado · Abre dom. às 07:00,https://www.google.com/maps/place/Emp%C3%B3rio+Santa+Gula/data=!4m7!3m6!1s0x94cc35cd8f7df7df:0x2c1f5d69a51bb7ef!8m2!3d-23.2033651!4d-45.9407799!16s%2Fg%2F1q663y48_!19sChIJ3_d9j801zJQR77cbpWldHyw?authuser=0&hl=pt-BR&rclk=1,,google_maps_scraper
df32014951d345e6,ENGLISH URBANOVA - Private English School - crianças e adultos,"R. Máximo Brogliato, 450 - Urbanova, São José dos Campos - SP, 12244-493, Brasil",-23.2003132,-45.9476218,+55 12 97403-5380,Mostrar horário de funcionamento da semana,instagram.com,,"5,0",50,Escola de inglês,Fechado · Abre seg. às 06:00,https://www.google.com/maps/place/ENGLISH+URBANOVA+-+Private+English+School+-+crian%C3%A7as+e+adultos/data=!4m7!3m6!1s0x94cc35d0906ad321:0x7d8e466287c600e1!8m2!3d-23.2003132!4d-45.9476218!16s%2Fg%2F11f720ww_d!19sChIJIdNqkNA1zJQR4QDGh2JGjn0?authuser=0&hl=pt-BR&rclk=1,,google_maps_scraper
f3062e4214cfd2dc,Enoteca Ferreti - Unidade Urbanova,"Av. Shishima Hifumi, 2101 - Urbanova, São José dos Campos - SP, 12244-000, Brasil",-23.2042775,-45.940766,+55 12 99757-8812,Mostrar horário de funcionamento da semana,enotecaferreti.com.br,,"4,4",44,Restaurante,Fecha em breve · 00:00 · Abre dom. às 12:00,https://www.google.com/maps/place/Enoteca+Ferreti+-+Unidade+Urbanova/data=!4m7!3m6!1s0x94cc35399b3c8e77:0x5497f394ecef2086!8m2!3d-23.2042775!4d-45.940766!16s%2Fg%2F11kqs37_5x!19sChIJd448mzk1zJQRhiDv7JTzl1Q?authuser=0&hl=pt-BR&rclk=1,,google_maps_scraper
e15e4f10b743edf3,Enter Glass,"Av. Ironman Victor Garrido, 623 - Urbanova, São José dos Campos - SP, 12244-392, Brasil",-23.2012343,-45.9487207,+55 12 99173-5851,Mostrar horário de funcionamento da semana,enterglass.com.br,,"5,0",50,Vidraçaria,Fechado · Abre seg. às 08:30,https://www.google.com/maps/place/Enter+Glass/data=!4m7!3m6!1s0x94cc35fd65fe21f1:0x549b3db1c19e8629!8m2!3d-23.2012343!4d-45.9487207!16s%2Fg%2F11ycgwgttl!19sChIJ8SH-Zf01zJQRKYaewbE9m1Q?authuser=0&hl=pt-BR&rclk=1,,google_maps_scraper
076302c7b26dc2d4,Equilíbrio Mini Mercado Natural,"Av dr - R. José Vieira Lopes da Costa, 66 - sala 6 - Urbanova, São José dos Campos - SP, 12244-122, Brasil",-23.1825771,-45.9507139,+55 12 99654-7410,Mostrar horário de funcionamento da semana,mercadinhoequilibrio.com.br,,,,Mercado,Fechado · Abre seg. às 08:00,https://www.google.com/maps/place/Equil%C3%ADbrio+Mini+Mercado+Natural/data=!4m7!3m6!1s0x94cc374362f61aef:0xb708cecd1df3beb8!8m2!3d-23.1825771!4d-45.9507139!16s%2Fg%2F11x82_3m5f!19sChIJ7xr2YkM3zJQRuL7zHc3OCLc?authuser=0&hl=pt-BR&rclk=1,,google_maps_scraper
bb8868406010e5f2,Escola Moppe | Educação Infantil e Ensino Fundamental (1º ao 9º ano),"Av. Linneu de Moura, 1645 - Urbanova, São José dos Campos - SP, 12244-380, Brasil",-23.1960933,-45.9187401,+55 12 3949-9380,,moppe.com.br,,,,Escola particular,,https://www.google.com/maps/place/Escola+Moppe+%7C+Educa%C3%A7%C3%A3o+Infantil+e+Ensino+Fundamental+%281%C2%BA+ao+9%C2%BA+ano%29/data=!4m7!3m6!1s0x94cc35dc3fb6e6e7:0xa31bc2976417398b!8m2!3d-23.1960933!4d-45.9187401!16s%2Fg%2F1tg7t3p0!19sChIJ5-a2P9w1zJQRizkXZJfCG6M?authuser=0&hl=pt-BR&rclk=1,,google_maps_scraper
55a927d6858c4c73,Espaço C'AlmaTerapia,"Av. Ironman Victor Garrido, 623 - sala 06 - Urbanova, São José dos Campos - SP, 12244-392, Brasil",-23.2015586,-45.9490266,+55 12 99121-8770,Fechado · Abre seg. às 08:00·Outros horários,instagram.com,,"5,0",50,Terapeuta,,https://www.google.com/maps/place/Espa%C3%A7o+C%27AlmaTerapia/data=!4m7!3m6!1s0x94cc35e2fb15f47d:0x1e9a05551cb53adb!8m2!3d-23.2015586!4d-45.9490266!16s%2Fg%2F11y30f5w4s!19sChIJffQV--I1zJQR2zq1HFUFmh4?authuser=0&hl=pt-BR&rclk=1,,google_maps_scraper
c61e3eceda3978a8,Espaço de Beleza La Vie Est Belle,"Av. Ironman Victor Garrido, 623 - Sala 8 - Urbanova, São José dos Campos - SP, 12244-392, Brasil",-23.2015247,-45.9490175,+55 12 3209-6751,Mostrar horário de funcionamento da semana,,,"4,7",47,Salão de Beleza,Fechado · Abre seg. às 09:00,https://www.google.com/maps/place/Espa%C3%A7o+de+Beleza+La+Vie+Est+Belle/data=!4m7!3m6!1s0x94cc342f206f766d:0x5c4c8f3732473807!8m2!3d-23.2015247!4d-45.9490175!16s%2Fg%2F11bv1cvvcd!19sChIJbXZvIC80zJQRBzhHMjePTFw?authuser=0&hl=pt-BR&rclk=1,,google_maps_scraper
2dec5fc7d3bc9cd6,Espaço Saúde,"Av. Ironman Victor Garrido, 585 - Urbanova, São José dos Campos - SP, 12244-020, Brasil",-23.2013454,-45.9489555,+55 12 99197-3197,Mostrar horário de funcionamento da semana,instagram.com,,"4,9",49,Academia,Fechado · Abre seg. às 07:00,https://www.google.com/maps/place/Espa%C3%A7o+Sa%C3%BAde/data=!4m7!3m6!1s0x94cc342edea59aa7:0x57be74b2e26c9e36!8m2!3d-23.2013454!4d-45.9489555!16s%2Fg%2F11c51rgxfz!19sChIJp5ql3i40zJQRNp5s4rJ0vlc?authuser=0&hl=pt-BR&rclk=1,,google_maps_scraper
2b7ed691ecec8ec7,EVEXÍA Vivência em Bem Estar,"Av. Jorge Cury, 172 - Urbanova, São José dos Campos - SP, Brasil",-23.184181,-45.9528014,+55 12 98889-5522,Mostrar horário de funcionamento da semana,evexiabemestar.com.br,,"5,0",50,Centro médico,Fechado · Abre seg. às 07:00,https://www.google.com/maps/place/EVEX%C3%8DA+Viv%C3%AAncia+em+Bem+Estar/data=!4m7!3m6!1s0x94cc370054f61b6b:0xc322525419360c7d!8m2!3d-23.184181!4d-45.9528014!16s%2Fg%2F11w7m059v1!19sChIJaxv2VAA3zJQRfQw2GVRSIsM?authuser=0&hl=pt-BR&rclk=1,,google_maps_scraper
cce7a4b50112bb57,F4 Natação & Fitness,"Av. Shishima Hifumi, 1250 - Urbanova, São José dos Campos - SP, 12244-000, Brasil",-23.2031668,-45.9406831,+55 12 3204-5859,Mostrar horário de funcionamento da semana,,,"4,2",42,Academia,Fechado · Abre seg. às 06:00,https://www.google.com/maps/place/F4+Nata%C3%A7%C3%A3o+%26+Fitness/data=!4m7!3m6!1s0x94cc35cd157ec75b:0xc4abd669b72fc103!8m2!3d-23.2031668!4d-45.9406831!16s%2Fg%2F1ydntvc1z!19sChIJW8d-Fc01zJQRA8Evt2nWq8Q?authuser=0&hl=pt-BR&rclk=1,,google_maps_scraper
754b6afdbcf63f5a,"Faculdade de Engenharias, Arquitetura e Urbanismo (FEAU)","FEAU (Campus - Av. Shishima Hifumi, 2911 - bloco 10 - Urbanova, São José dos Campos - SP, 12244-000, Brasil",-23.2117197,-45.9635388,+55 12 3947-1006,Mostrar horário de funcionamento da semana,univap.br,,"4,8",48,Universidade,Fechado · Abre seg. às 08:00,"https://www.google.com/maps/place/Faculdade+de+Engenharias,+Arquitetura+e+Urbanismo+%28FEAU%29/data=!4m7!3m6!1s0x94cc34170bbedc0b:0xeca3d28b22ee1757!8m2!3d-23.2117197!4d-45.9635388!16s%2Fg%2F11cmr0h_yt!19sChIJC9y-Cxc0zJQRVxfuIovSo-w?authuser=0&hl=pt-BR&rclk=1",,google_maps_scraper
5e24df0ddaeb74f3,Fazenda da Vovó,"Tv. Lineu de Moura, 1900 - Urbanova, São José dos Campos - SP, 12244-380, Brasil",-23.1963665,-45.9290284,+55 12 97412-7231,Mostrar horário de funcionamento da semana,fazendadavovo.com.br,,"4,6",46,Restaurante,Fechado · Abre dom. às 08:00,https://www.google.com/maps/place/Fazenda+da+Vov%C3%B3/data=!4m7!3m6!1s0x94cc35385b60a923:0x4968e5752c548e8c!8m2!3d-23.1963665!4d-45.9290284!16s%2Fg%2F11j5p5zf5f!19sChIJI6lgWzg1zJQRjI5ULHXlaEk?authuser=0&hl=pt-BR&rclk=1,,google_maps_scraper
38f740668d4e2c0f,FAZOL URBANOVA,"Av. João Paulo ||, 751 - Urbanova, São José dos Campos - SP, 12244-597, Brasil",-23.200624,-45.9576978,+55 12 3949-2727,Mostrar horário de funcionamento da semana,,,"5,0",50,Fabricante de aço,Fechado · Abre seg. às 07:00,https://www.google.com/maps/place/FAZOL+URBANOVA/data=!4m7!3m6!1s0x94cc3425d15e98c1:0x729b21d3f0231fc4!8m2!3d-23.200624!4d-45.9576978!16s%2Fg%2F11c54bsh6k!19sChIJwZhe0SU0zJQRxB8j8NMhm3I?authuser=0&hl=pt-BR&rclk=1,,google_maps_scraper
6b087c5145fbcefa,Fazol Urbanova - Aço Armado,Avenida Maria de Lourdes Friggi,-23.200553,-45.9576843,,,,,,,craft:metal_construction,,,node/12232183802,osm_overpass
cf127bc2360f1e07,Fernandes Tintas - Urbanova (Loja 11),"Av. Linneu de Moura, 795 - Urbanova, São José dos Campos - SP, 12244-380, Brasil",-23.1940742,-45.9213194,+55 12 3949-3272,Mostrar horário de funcionamento da semana,fernandestintas.com.br,,"5,0",50,Loja de tintas,Fechado · Abre dom. às 09:00,https://www.google.com/maps/place/Fernandes+Tintas+-+Urbanova+%28Loja+11%29/data=!4m7!3m6!1s0x94cc35002b4ff9a5:0x6820cfee88d976a4!8m2!3d-23.1940742!4d-45.9213194!16s%2Fg%2F11xthnjfq6!19sChIJpflPKwA1zJQRpHbZiO7PIGg?authuser=0&hl=pt-BR&rclk=1,,google_maps_scraper
68f16d1256c111b7,Fernando Andrade Consultoria,"R. Inez Maria Cuoghi, 100 - Urbanova, São José dos Campos - SP, 12244-857, Brasil",-23.2029362,-45.95252,+55 12 98827-5095,Mostrar horário de funcionamento da semana,fernandoandrademkt.com.br,,"5,0",50,Agência de marketing digital,Fechado · Abre seg. às 09:00,https://www.google.com/maps/place/Fernando+Andrade+Consultoria/data=!4m7!3m6!1s0x94cc3539a064f84d:0xd1bd55c5485e72e0!8m2!3d-23.2029362!4d-45.95252!16s%2Fg%2F11nyl00bv0!19sChIJTfhkoDk1zJQR4HJeSMVVvdE?authuser=0&hl=pt-BR&rclk=1,,google_maps_scraper
06421e020c5eec44,Ferreirinha Imóveis,"Av. Ironman Victor Garrido, 48 - Urbanova II, São José dos Campos - SP, 12244-392, Brasil",-23.2032036,-45.9455178,+55 12 3949-9999,Mostrar horário de funcionamento da semana,ferreirinhaimoveis.com.br,,"3,8",38,Imobiliária,Fechado · Abre seg. às 09:00,https://www.google.com/maps/place/Ferreirinha+Im%C3%B3veis/data=!4m7!3m6!1s0x94cc342d92a91c1b:0xd6d46a3963fa9b4f!8m2!3d-23.2032036!4d-45.9455178!16s%2Fg%2F11gzphvyn!19sChIJGxypki00zJQRT5v6Yzlq1NY?authuser=0&hl=pt-BR&rclk=1,,google_maps_scraper
1e20d730055865ce,Fisio Unic - Fisioterapia URBANOVA,"Av. Maria de Lourdes Friggi, 405 - sala 4 - Urbanova, São José dos Campos - SP, 12244-882, Brasil",-23.1994061,-45.9593165,+55 12 99609-1402,Mostrar horário de funcionamento da semana,,,,,Clínica de Fisioterapia,Fechado · Abre seg. às 07:00,https://www.google.com/maps/place/Fisio+Unic+-+Fisioterapia+URBANOVA/data=!4m7!3m6!1s0x94cc35a0ba94a2cd:0x75e231e57f00c1b6!8m2!3d-23.1994061!4d-45.9593165!16s%2Fg%2F11xd_m9v78!19sChIJzaKUuqA1zJQRtsEAf-Ux4nU?authuser=0&hl=pt-BR&rclk=1,,google_maps_scraper
e8622ccc01b24ea4,Ganso Lanches,"Av. Shishima Hifumi, 2864 - Urbanova, São José dos Campos - SP, 12244-000, Brasil",-23.2045518,-45.9504968,+55 12 98222-5916,Mostrar horário de funcionamento da semana,,,"4,6",46,Lanchonete,Fecha em breve · 00:00 · Abre dom. às 17:00,https://www.google.com/maps/place/Ganso+Lanches/data=!4m7!3m6!1s0x94cc343295e2183d:0x4fb7e6d93c04001!8m2!3d-23.2045518!4d-45.9504968!16s%2Fg%2F11g6wym95h!19sChIJPRjilTI0zJQRAUDAk21--wQ?authuser=0&hl=pt-BR&rclk=1,,google_maps_scraper
29a558d9aaaf71d3,GiOlaser Urbanova - Clínica de Estética,"Madrid Open Mall - Av. Shishima Hifumi, 2101 - Urbanova, São José dos Campos - SP, 12244-000, Brasil",-23.2040969,-45.9405005,+55 12 98860-4745,,giolaser.com.br,,"4,8",48,Serviço de depilação a laser,Permanentemente fechado,https://www.google.com/maps/place/GiOlaser+Urbanova+-+Cl%C3%ADnica+de+Est%C3%A9tica/data=!4m7!3m6!1s0x94cc35a6f0187d93:0x206f42dd48575d3c!8m2!3d-23.2040969!4d-45.9405005!16s%2Fg%2F11kqfwrc3d!19sChIJk30Y8KY1zJQRPF1XSN1CbyA?authuser=0&hl=pt-BR&rclk=1,,google_maps_scraper
5e5484864f6af045,Grandsky Urbanova,"Av. Shishima Hifumi, 2828 - Urbanova, São José dos Campos - SP, 12244-390, Brasil",-23.2043192,-45.9501554,+55 12 3206-0019,,grandskyurbanova.com.br,,"4,7",47,Hotel,,https://www.google.com/maps/place/Grandsky+Urbanova/data=!4m7!3m6!1s0x94cc342fbf596a47:0x5bd98524007eaf20!8m2!3d-23.2043192!4d-45.9501554!16s%2Fg%2F11kdtjcpq0!19sChIJR2pZvy80zJQRIK9-ACSF2Vs?authuser=0&hl=pt-BR&rclk=1,,google_maps_scraper
b9cc9bc293ac2066,Granovie Mercado Natural,"Av. Shishima Hifumi, 2101 - Urbanova, São José dos Campos - SP, 12244-000, Brasil",-23.2038284,-45.9404284,+55 12 3949-1539,Fechado · Abre dom. às 08:00·Outros horários,,,"5,0",50,Loja de produtos naturais,,https://www.google.com/maps/place/Granovie+Mercado+Natural/data=!4m7!3m6!1s0x94cc356af7cd503b:0x972cf2354555a7ce!8m2!3d-23.2038284!4d-45.9404284!16s%2Fg%2F11fhyql3fj!19sChIJO1DN92o1zJQRzqdVRTXyLJc?authuser=0&hl=pt-BR&rclk=1,,google_maps_scraper
815466df9c37e5d7,Grupo Fundamentos,"Av. Aquarela do Brasil, 550 - Urbanova, São José dos Campos - SP, 12244-625, Brasil",-23.188709,-45.9632299,+55 12 3932-9140,Mostrar horário de funcionamento da semana,fundamentos.com.br,,"4,8",48,Escritório da empresa,Fechado · Abre seg. às 08:00,https://www.google.com/maps/place/Grupo+Fundamentos/data=!4m7!3m6!1s0x94cc4a66d1cedc1d:0x1d0bb157895adeda!8m2!3d-23.188709!4d-45.9632299!16s%2Fg%2F1t_h_2ry!19sChIJHdzO0WZKzJQR2t5aiVexCx0?authuser=0&hl=pt-BR&rclk=1,,google_maps_scraper
51a64a51d841f7a3,Guia Urbanova,"Av. Ironman Victor Garrido, 651 - Urbanova, São José dos Campos - SP, 12244-392, Brasil",-23.2017395,-45.9494003,+55 12 97402-0740,,guiaurbanova.com.br,,"5,0",50,Mídia,,https://www.google.com/maps/place/Guia+Urbanova/data=!4m7!3m6!1s0x94cc342ec559e3a7:0xd2d8ee60add0a2b9!8m2!3d-23.2017395!4d-45.9494003!16s%2Fg%2F11h63dslhp!19sChIJp-NZxS40zJQRuaLQrWDu2NI?authuser=0&hl=pt-BR&rclk=1,,google_maps_scraper
ab6f5c920fa828a4,Hajime Academia,"Av. Antônio Widmer, 605 - Urbanova, São José dos Campos - SP, 12244-873, Brasil",-23.2027275,-45.9558215,+55 12 98158-4020,Mostrar horário de funcionamento da semana,facebook.com,,"4,8",48,Academia de artes marciais,Fechado · Abre seg. às 09:00,https://www.google.com/maps/place/Hajime+Academia/data=!4m7!3m6!1s0x94cc342edfc0277f:0x81b7808b316f5b13!8m2!3d-23.2027275!4d-45.9558215!16s%2Fg%2F1q66yc2vz!19sChIJfyfA3y40zJQRE1tvMYuAt4E?authuser=0&hl=pt-BR&rclk=1,,google_maps_scraper
9421be7fa0bab0d0,Hamburgueria Bullguer,"Av. Shishima Hifumi, 2101 - loja 11 - Urbanova, São José dos Campos - SP, 12244-390, Brasil",-23.2041727,-45.9405692,,Fechado · Abre dom. às 11:30·Outros horários,bullguer.com,,"4,7",47,Hamburgueria,,https://www.google.com/maps/place/Hamburgueria+Bullguer/data=!4m7!3m6!1s0x94cc35fcda400c63:0x2cb533f8e4057d!8m2!3d-23.2041727!4d-45.9405692!16s%2Fg%2F11tp4j1498!19sChIJYwxA2vw1zJQRfQXk-DO1LAA?authuser=0&hl=pt-BR&rclk=1,,google_maps_scraper
89e20495c3b0ee47,Hammer Corretores,"Av. Durval Messias Queiroga, 254 - Urbanova, São José dos Campos - SP, 12244-142, Brasil",-23.1800992,-45.9507553,+55 12 97410-7733,Mostrar horário de funcionamento da semana,hammercorretores.com.br,,"5,0",50,Imobiliária,Fechado · Abre seg. às 09:00,https://www.google.com/maps/place/Hammer+Corretores/data=!4m7!3m6!1s0x94cc4bc4625994c9:0x5a40059c38156417!8m2!3d-23.1800992!4d-45.9507553!16s%2Fg%2F11txmwzlkg!19sChIJyZRZYsRLzJQRF2QVOJwFQFo?authuser=0&hl=pt-BR&rclk=1,,google_maps_scraper
4c75ec325b85168b,HELÔ TINTAS,"Av. Ironman Victor Garrido, 545 - Urbanova, São José dos Campos - SP, 12244-392, Brasil",-23.2011093,-45.9486177,+55 12 3949-2355,Mostrar horário de funcionamento da semana,helotintas.com.br,,"4,9",49,Loja de tintas,Fechado · Abre dom. às 09:00,https://www.google.com/maps/place/HEL%C3%94+TINTAS/data=!4m7!3m6!1s0x94cc3500298d05bd:0xd18cee4189b8519!8m2!3d-23.2011093!4d-45.9486177!16s%2Fg%2F11mlgw42qw!19sChIJvQWNKQA1zJQRGYWbGOTOGA0?authuser=0&hl=pt-BR&rclk=1,,google_maps_scraper
b065ca8487927116,Horizonte Imóveis Urbanova,"R. Francisco Pandolfi, 563 - sala 7 - 2° andar - Urbanova II, São José dos Campos - SP, 12244-491, Brasil",-23.2012226,-45.9487947,+55 12 3949-2666,Fechado · Abre seg. às 08:00·Outros horários,horizonteimoveis.com,,"4,4",44,Imobiliária,,https://www.google.com/maps/place/Horizonte+Im%C3%B3veis+Urbanova/data=!4m7!3m6!1s0x94cc34242aeedd7f:0x8ce682a7570cb6d!8m2!3d-23.2012226!4d-45.9487947!16s%2Fg%2F11f4qqbs1g!19sChIJf93uKiQ0zJQRbctwdSpozgg?authuser=0&hl=pt-BR&rclk=1,,google_maps_scraper
777ed9628bf0eb64,Hortifruti Urba Horta -Produtos Sem Agrotóxicos - Orgânicos,"Av. Danilo Stanzani, 700 - Urbanova, São José dos Campos - SP, 12244-024, Brasil",-23.1899517,-45.9327731,+55 12 99620-8664,Mostrar horário de funcionamento da semana,instagram.com,,"5,0",50,Mercado de frutas e vegetais,Fechado · Abre seg. às 08:00,https://www.google.com/maps/place/Hortifruti+Urba+Horta+-Produtos+Sem+Agrot%C3%B3xicos+-+Org%C3%A2nicos/data=!4m7!3m6!1s0x94cc374cd9939bc9:0x33f1fcd779ccdac8!8m2!3d-23.1899517!4d-45.9327731!16s%2Fg%2F11ny3hr5dw!19sChIJyZuT2Uw3zJQRyNrMedf88TM?authuser=0&hl=pt-BR&rclk=1,,google_maps_scraper
c91800a73f357bed,"Hospital viValle: Maternidade, Pronto Atendimento, Emergência, UTI São José dos Campos SP","Av. Linneu de Moura, 995 - Urbanova, São José dos Campos - SP, 12244-380, Brasil",-23.1983463,-45.9159189,+55 12 3924-4900,Mostrar horário de funcionamento da semana,vivalle.com.br,,"3,8",38,Hospital,Aberto 24 horas,"https://www.google.com/maps/place/Hospital+viValle:+Maternidade,+Pronto+Atendimento,+Emerg%C3%AAncia,+UTI+S%C3%A3o+Jos%C3%A9+dos+Campos+SP/data=!4m7!3m6!1s0x94cc35e7b658fea1:0xc136017689cf8899!8m2!3d-23.1983463!4d-45.9159189!16s%2Fg%2F11h0wns2f!19sChIJof5Ytuc1zJQRmYjPiXYBNsE?authuser=0&hl=pt-BR&rclk=1",,google_maps_scraper
46bdee63bcba5b15,Hot Pizza,"Av. Shishima Hifumi, 2864 - Urbanova, São José dos Campos - SP, 12244-000, Brasil",-23.204525,-45.9504802,+55 12 98256-2328,Mostrar horário de funcionamento da semana,,,"4,3",43,Delivery de Pizza,Fecha em breve · 00:00 · Abre dom. às 18:00,https://www.google.com/maps/place/Hot+Pizza/data=!4m7!3m6!1s0x94cc342feaf4a1e5:0x406c3db252d15921!8m2!3d-23.204525!4d-45.9504802!16s%2Fg%2F1q66pmvbk!19sChIJ5aH06i80zJQRIVnRUrI9bEA?authuser=0&hl=pt-BR&rclk=1,,google_maps_scraper
77dd4d44d7d2c7db,Hundred % Fit Academia,"Av. João Paulo ||, 300 - Urbanova, São José dos Campos - SP, 12244-510, Brasil",-23.2022289,-45.9516823,+55 12 98810-7077,Mostrar horário de funcionamento da semana,hundredfitacademia.com.br,,"4,8",48,Academia,Fechado · Abre às 09:00,https://www.google.com/maps/place/Hundred+%25+Fit+Academia/data=!4m7!3m6!1s0x94cc350054636151:0x29611330cba5585!8m2!3d-23.2022289!4d-45.9516823!16s%2Fg%2F11yfln533m!19sChIJUWFjVAA1zJQRhVW6DDMRlgI?authuser=0&hl=pt-BR&rclk=1,,google_maps_scraper
cfecf6ed1e6844f8,I9GLASS vidros e esquadrias,"Av. Durval Messias Queiroga, 254 - Urbanova, São José dos Campos - SP, 12244-142, Brasil",-23.1800992,-45.9507553,+55 12 99235-8710,Mostrar horário de funcionamento da semana,i9glass.com.br,,,,Vidraçaria,Fechado · Abre seg. às 08:00,https://www.google.com/maps/place/I9GLASS+vidros+e+esquadrias/data=!4m7!3m6!1s0x94cc4bd82b04d69f:0x6c3e17519cef7e2a!8m2!3d-23.1800992!4d-45.9507553!16s%2Fg%2F11l9p0fz_n!19sChIJn9YEK9hLzJQRKn7vnFEXPmw?authuser=0&hl=pt-BR&rclk=1,,google_maps_scraper
e60d38e85e8b7398,Igreja Batista Sião,"R. Albino dos Anjos Conrado, 80 - Urbanova V, São José dos Campos - SP, 12244-850, Brasil",-23.2023732,-45.9526286,+55 12 3949-3069,Mostrar horário de funcionamento da semana,igrejabatistasiao.sjc.br,,"4,7",47,Igreja Batista,Fechado · Abre às 09:00,https://www.google.com/maps/place/Igreja+Batista+Si%C3%A3o/data=!4m7!3m6!1s0x94cc3425dd5853e1:0x399ccb6e914a7fee!8m2!3d-23.2023732!4d-45.9526286!16s%2Fg%2F1q66nw7m8!19sChIJ4VNY3SU0zJQR7n9KkW7LnDk?authuser=0&hl=pt-BR&rclk=1,,google_maps_scraper
378fadeaf11d9c64,Immigrati Pizzeria,"Av. Ironman Victor Garrido, 110 - Loja 01 - Urbanova, São José dos Campos - SP, 12244-392, Brasil",-23.2023907,-45.9455711,+55 12 3207-7669,Mostrar horário de funcionamento da semana,immigrati.com.br,,"4,1",41,Pizzaria,Fechado · Abre dom. às 18:00,https://www.google.com/maps/place/Immigrati+Pizzeria/data=!4m7!3m6!1s0x94cc342dbff70ee3:0xdaa172cc4880c291!8m2!3d-23.2023907!4d-45.9455711!16s%2Fg%2F11cjhk34rn!19sChIJ4w73vy00zJQRkcKASMxyodo?authuser=0&hl=pt-BR&rclk=1,,google_maps_scraper
3358a9e8357151e2,Imobiliária Grupo Kaza Urbanova - 031388-j,"Av. Shishima Hifumi, 1956 - Urbanova, São José dos Campos - SP, 12244-000, Brasil",-23.2036392,-45.9416114,+55 12 3949-9000,Mostrar horário de funcionamento da semana,grupokaza.com.br,,"4,4",44,Imobiliária,Fechado · Abre seg. às 09:00,https://www.google.com/maps/place/Imobili%C3%A1ria+Grupo+Kaza+Urbanova+-+031388-j/data=!4m7!3m6!1s0x94cc35d058e97979:0x4d8e0f2fdb9a0db7!8m2!3d-23.2036392!4d-45.9416114!16s%2Fg%2F11dx9g5_79!19sChIJeXnpWNA1zJQRtw2a2y8Pjk0?authuser=0&hl=pt-BR&rclk=1,,google_maps_scraper
5a5c7dbca9d3d0c9,Indústria do Açaí Urbanova,"Av. Shishima Hifumi, N° 2990 - Urbanova, São José dos Campos - SP, 12244-000, Brasil",-23.2050647,-45.9512307,+55 12 3204-3304,,,,,,Atacadista de frutas,,https://www.google.com/maps/place/Ind%C3%BAstria+do+A%C3%A7a%C3%AD+Urbanova/data=!4m7!3m6!1s0x94cc35520a3ccabf:0x1b9153cebb3ae58e!8m2!3d-23.2050647!4d-45.9512307!16s%2Fg%2F11j1032_5r!19sChIJv8o8ClI1zJQRjuU6u85TkRs?authuser=0&hl=pt-BR&rclk=1,,google_maps_scraper
a8177aad92f7cab6,inFlux Urbanova Connect,"Av. João Paulo ||, 300 - Urbanova III, São José dos Campos - SP, 12244-510, Brasil",-23.2022295,-45.951685,+55 12 3943-4111,Mostrar horário de funcionamento da semana,,,"5,0",50,Escola de inglês,Fechado · Abre seg. às 09:00,https://www.google.com/maps/place/inFlux+Urbanova+Connect/data=!4m7!3m6!1s0x94cc3594b417beeb:0x2926a71a728a77ae!8m2!3d-23.2022295!4d-45.951685!16s%2Fg%2F11y6dvnz1f!19sChIJ674XtJQ1zJQRrneKchqnJik?authuser=0&hl=pt-BR&rclk=1,,google_maps_scraper
59a3afe2c8bc13a0,Instituto Trata - Urbanova,"Av. Ironman Victor Garrido, 140 - Urbanova, São José dos Campos - SP, 12244-392, Brasil",-23.2022916,-45.9454126,+55 12 99764-5784,Mostrar horário de funcionamento da semana,institutotrata.com.br,,"5,0",50,Clínica de Fisioterapia,Fechado · Abre seg. às 07:00,https://www.google.com/maps/place/Instituto+Trata+-+Urbanova/data=!4m7!3m6!1s0x94cc353a39dc3e15:0x74166c8c7c281e5d!8m2!3d-23.2022916!4d-45.9454126!16s%2Fg%2F11x0c8rl6b!19sChIJFT7cOTo1zJQRXR4ofIxsFnQ?authuser=0&hl=pt-BR&rclk=1,,google_maps_scraper
c6bb939b9093b604,Invent Coworking,"Av. Maria de Lourdes Friggi, 371 - 2º Andar - Urbanova, São José dos Campos - SP, 12244-882, Brasil",-23.199707,-45.9588734,,,inventcoworking.com.br,,"4,0",40,Espaço de coworking,Temporariamente fechado,https://www.google.com/maps/place/Invent+Coworking/data=!4m7!3m6!1s0x94cc356e73ab6893:0x5bcd22a3cea10a54!8m2!3d-23.199707!4d-45.9588734!16s%2Fg%2F11svryxyfd!19sChIJk2irc241zJQRVAqhzqMizVs?authuser=0&hl=pt-BR&rclk=1,,google_maps_scraper
afb5d3e7b943a191,Jaguary Bar & Restô,"Fazenda Jaguariúna - R. Jaguariuna - Urbanova, São José dos Campos - SP, 12244-109, Brasil",-23.1736913,-45.9509152,+55 12 99206-8181,Mostrar horário de funcionamento da semana,instagram.com,,"3,9",39,Restaurante,Fechado · Abre dom. às 12:00,https://www.google.com/maps/place/Jaguary+Bar+%26+Rest%C3%B4/data=!4m7!3m6!1s0x94cc376e883356b7:0x8185d448105b8d3!8m2!3d-23.1736913!4d-45.9509152!16s%2Fg%2F11rffzs8_4!19sChIJt1YziG43zJQR07gFgURdGAg?authuser=0&hl=pt-BR&rclk=1,,google_maps_scraper
a1dbeb68e8bbe61a,JM Center • Intermac Hidráulica Urbanova,"Av. Ironman Victor Garrido, 555 - Urbanova, São José dos Campos - SP, 12244-392, Brasil",-23.2012163,-45.9487248,+55 12 3204-5931,Mostrar horário de funcionamento da semana,intermachidraulica.com.br,,"4,6",46,Loja de materiais de construção,Fechado · Abre seg. às 08:00,https://www.google.com/maps/place/JM+Center+%E2%80%A2+Intermac+Hidr%C3%A1ulica+Urbanova/data=!4m7!3m6!1s0x94cc35f0aeb88f83:0x7aecd13bf2b8b73e!8m2!3d-23.2012163!4d-45.9487248!16s%2Fg%2F11h4tpnlxc!19sChIJg4-4rvA1zJQRPre48jvR7Ho?authuser=0&hl=pt-BR&rclk=1,,google_maps_scraper
76730ed6feac0824,karina Cruz Beauty Nails,"Av. Ironman Victor Garrido, 691 - Urbanova, São José dos Campos - SP, 12244-000, Brasil",-23.2020554,-45.9501707,+55 12 98230-3782,,,,"5,0",50,Salão de Beleza,,https://www.google.com/maps/place/karina+Cruz+Beauty+Nails/data=!4m7!3m6!1s0x94cc35e08643113b:0x753f2967eeec7de!8m2!3d-23.2020554!4d-45.9501707!16s%2Fg%2F11rzf_pct2!19sChIJOxFDhuA1zJQR3sfufpbyUwc?authuser=0&hl=pt-BR&rclk=1,,google_maps_scraper
59ba2433f58e6d61,Kezia Loja,"R. Rui Sérgio Rodrigues de Moura, 963 - Urbanova, São José dos Campos - SP, 12244-465, Brasil",-23.197029,-45.9392445,+55 12 98156-9262,Mostrar horário de funcionamento da semana,,,"4,9",49,Loja de moda feminina,Fechado · Abre seg. às 09:00,https://www.google.com/maps/place/Kezia+Loja/data=!4m7!3m6!1s0x94cc4a7055daaebb:0xdfe20dabc6c6aac7!8m2!3d-23.197029!4d-45.9392445!16s%2Fg%2F11b5plfkj3!19sChIJu67aVXBKzJQRx6rGxqsN4t8?authuser=0&hl=pt-BR&rclk=1,,google_maps_scraper
26122fa9692bea58,King of BJJ - unidade Urbanova / Academia de Jiu Jitsu,"Rua Dr - R. José Vieira Lopes da Costa, 66 - sala 04 - Urbanova, São José dos Campos - SP, 12244-122, Brasil",-23.1825771,-45.9507139,+55 12 98886-8800,Mostrar horário de funcionamento da semana,kingofbjj.com.br,,"5,0",50,Escola de jiu-jitsu,Fechado · Abre seg. às 06:00,https://www.google.com/maps/place/King+of+BJJ+-+unidade+Urbanova+%2F+Academia+de+Jiu+Jitsu/data=!4m7!3m6!1s0x94cc3748d7913d47:0x71be5ca068b99b4b!8m2!3d-23.1825771!4d-45.9507139!16s%2Fg%2F11xmjt4y27!19sChIJRz2R10g3zJQRS5u5aKBcvnE?authuser=0&hl=pt-BR&rclk=1,,google_maps_scraper
ffa24bd6ddca5406,Kisabor,"Urbanova, São José dos Campos - SP, 12244-450, Brasil",-23.2029368,-45.9440393,,,,,,,Restaurante,,https://www.google.com/maps/place/Kisabor/data=!4m7!3m6!1s0x94cc3500026c71db:0xc608275b09751cbb!8m2!3d-23.2029368!4d-45.9440393!16s%2Fg%2F11w4rrfblf!19sChIJ23FsAgA1zJQRuxx1CVsnCMY?authuser=0&hl=pt-BR&rclk=1,,google_maps_scraper
55fa890406d1ed1b,Kumon Urbanova,"Av. Antônio Widmer, 631 - Sobreloja - Urbanova, São José dos Campos - SP, 12244-873, Brasil",-23.2027275,-45.9554532,+55 12 3346-5200,Mostrar horário de funcionamento da semana,kumon.com.br,,"5,0",50,Centro educacional,Fechado · Abre seg. às 08:00,https://www.google.com/maps/place/Kumon+Urbanova/data=!4m7!3m6!1s0x94cc342ea9bdf13b:0x912005c64d24d9d1!8m2!3d-23.2027275!4d-45.9554532!16s%2Fg%2F11gfdbdmhb!19sChIJO_G9qS40zJQR0dkkTcYFIJE?authuser=0&hl=pt-BR&rclk=1,,google_maps_scraper
02a862819ac49561,L.Quintanilha Corretor de Imóveis - Urbanova - Creci 42581,"Av. Ironman Victor Garrido, 563 - Sala 03 - Urbanova, São José dos Campos - SP, 12244-392, Brasil",-23.2012505,-45.9486407,+55 12 3949-1914,Mostrar horário de funcionamento da semana,quintanilhaimv.com.br,,"4,7",47,Imobiliária,Fechado · Abre seg. às 09:00,https://www.google.com/maps/place/L.Quintanilha+Corretor+de+Im%C3%B3veis+-+Urbanova+-+Creci+42581/data=!4m7!3m6!1s0x94cc35d35c82ea8d:0x197b56a822965e4b!8m2!3d-23.2012505!4d-45.9486407!16s%2Fg%2F11h0pbhx9!19sChIJjeqCXNM1zJQRS16WIqhWexk?authuser=0&hl=pt-BR&rclk=1,,google_maps_scraper
dfae624cd90472c9,La Ville Lavanderia Express - Urbanova,"Av. Ironman Victor Garrido, 460 - Sala 09 - Urbanova II, São José dos Campos - SP, 12244-392, Brasil",-23.2003539,-45.9471038,+55 12 99663-8008,Mostrar horário de funcionamento da semana,lavillexpress.com.br,,"5,0",50,Lavanderia,Fechado · Abre às 06:00,https://www.google.com/maps/place/La+Ville+Lavanderia+Express+-+Urbanova/data=!4m7!3m6!1s0x94cc35bce94fd187:0x3f3441f150e548bf!8m2!3d-23.2003539!4d-45.9471038!16s%2Fg%2F11zj9b6fgv!19sChIJh9FP6bw1zJQRv0jlUPFBND8?authuser=0&hl=pt-BR&rclk=1,,google_maps_scraper
53dc603aca26ff4d,Laboratório de Exercícios Resistidos (Academia),"Avenida Shishima Hifumi, 2911, Urbanova, São José dos Campos",-23.2052956,-45.9492261,,,,,,,leisure:sports_hall,,,node/8742694628,osm_overpass
0e9de4c26533caea,LabviValle,"Tv. Lineu de Moura, 995 - Urbanova, São José dos Campos - SP, 12244-381, Brasil",-23.1928163,-45.9217741,+55 12 3924-4900,,labvivalle.com.br,,"3,0",30,Laboratório médico,,https://www.google.com/maps/place/LabviValle/data=!4m7!3m6!1s0x94cc35e70cce5f97:0x8e9a6e7d7709a289!8m2!3d-23.1928163!4d-45.9217741!16s%2Fg%2F11q1vbdxg1!19sChIJl1_ODOc1zJQRiaIJd31umo4?authuser=0&hl=pt-BR&rclk=1,,google_maps_scraper
f6889751c1a591eb,Lava Rápido AcquaMac,"Posto Shell - Av. Shishima Hifumi, 2320 - Urbanova II, São José dos Campos - SP, 12244-460, Brasil",-23.2035863,-45.9455089,+55 12 97404-7734,,,,"3,5",35,Lava-rápido,,https://www.google.com/maps/place/Lava+R%C3%A1pido+AcquaMac/data=!4m7!3m6!1s0x94cc35330a2f5551:0xb858f8839d748ab1!8m2!3d-23.2035863!4d-45.9455089!16s%2Fg%2F11kzfx3dr4!19sChIJUVUvCjM1zJQRsYp0nYP4WLg?authuser=0&hl=pt-BR&rclk=1,,google_maps_scraper
411a419ff16bafd2,Lavanderia 60 Minutos - Urbanova,"Av. João Paulo ||, 300 - loja 03 - Urbanova, São José dos Campos - SP, 12244-597, Brasil",-23.2025916,-45.9517782,+55 800 060 6060,Mostrar horário de funcionamento da semana,lavanderia60minutos.com.br,,"5,0",50,Lavanderia automática,Fechado · Abre às 07:00,https://www.google.com/maps/place/Lavanderia+60+Minutos+-+Urbanova/data=!4m7!3m6!1s0x94cc35a76f19f581:0xf544bf7d096acff6!8m2!3d-23.2025916!4d-45.9517782!16s%2Fg%2F11zkrv3dpn!19sChIJgfUZb6c1zJQR9s9qCX2_RPU?authuser=0&hl=pt-BR&rclk=1,,google_maps_scraper
31a31daa5c10869b,LAVANDERIA BRASÍLIA URBANOVA,"Av. Shishima Hifumi, 2096 - Loja C - Urbanova, São José dos Campos - SP, 12244-000, Brasil",-23.2037488,-45.9428425,+55 12 3949-1169,Mostrar horário de funcionamento da semana,,,"4,6",46,Lavanderia,Fechado · Abre seg. às 09:00,https://www.google.com/maps/place/LAVANDERIA+BRAS%C3%8DLIA+URBANOVA/data=!4m7!3m6!1s0x94cc3432bbeeeebf:0xda20820fbe52a12d!8m2!3d-23.2037488!4d-45.9428425!16s%2Fg%2F1q65_wjjm!19sChIJv-7uuzI0zJQRLaFSvg-CINo?authuser=0&hl=pt-BR&rclk=1,,google_maps_scraper
bdb9c6f6437f8439,LavTop Lavanderia _ Urbanova,"Av. Possidônio José de Freitas, 2641 - Urbanova, São José dos Campos - SP, 12244-010, Brasil",-23.1893515,-45.9337648,+55 12 3936-6020,Mostrar horário de funcionamento da semana,lavtop.com.br,,"4,9",49,Lavanderia,Fechado · Abre seg. às 08:00,https://www.google.com/maps/place/LavTop+Lavanderia+_+Urbanova/data=!4m7!3m6!1s0x94cc35fa469e9149:0x32221269256b8d6c!8m2!3d-23.1893515!4d-45.9337648!16s%2Fg%2F11qntl3n2_!19sChIJSZGeRvo1zJQRbI1rJWkSIjI?authuser=0&hl=pt-BR&rclk=1,,google_maps_scraper
c12feee340515bdf,Legacy School São José dos Campos,"Av. Shishima Hifumi, 2800 - Urbanova, São José dos Campos - SP, 12244-000, Brasil",-23.2042149,-45.9500589,+55 12 98893-5889,Mostrar horário de funcionamento da semana,legacyschool.com.br,,,,Escola de educação geral,Fechado · Abre seg. às 08:00,https://www.google.com/maps/place/Legacy+School+S%C3%A3o+Jos%C3%A9+dos+Campos/data=!4m7!3m6!1s0x94cc35ea9a1e3bbb:0xb2b3620fb1a7aa58!8m2!3d-23.2042149!4d-45.9500589!16s%2Fg%2F11yyy14qxt!19sChIJuzsemuo1zJQRWKqnsQ9is7I?authuser=0&hl=pt-BR&rclk=1,,google_maps_scraper
8c9151817ebc2bc1,Madrid Open Mall,"Avenida Shishima Hifumi, 2101, Av. Shishima Hifumi, 1871 - Urbanova, São José dos Campos - SP, 12244-390, Brasil",-23.2038284,-45.9404284,,Mostrar horário de funcionamento da semana,madridopenmall.com.br,,"4,5",45,Loja,Fechado · Abre às 08:00,https://www.google.com/maps/place/Madrid+Open+Mall/data=!4m7!3m6!1s0x94cc3544eb11923d:0xda04528b11bacc97!8m2!3d-23.2038284!4d-45.9404284!16s%2Fg%2F11sycy9jjg!19sChIJPZIR60Q1zJQRl8y6EYtSBNo?authuser=0&hl=pt-BR&rclk=1,,google_maps_scraper
e498d2ca6417ad2e,Manacá Studio de Beleza & SPA,"Av. Antônio Widmer, 679 - piso superior - Urbanova, São José dos Campos - SP, 12244-873, Brasil",-23.2026361,-45.9551965,+55 12 99660-2022,Mostrar horário de funcionamento da semana,trinks.com,,"5,0",50,Centro de saúde e beleza,Fechado · Abre ter. às 08:00,https://www.google.com/maps/place/Manac%C3%A1+Studio+de+Beleza+%26+SPA/data=!4m7!3m6!1s0x94cc35c57f69a10f:0xe13ac3b6014224e4!8m2!3d-23.2026361!4d-45.9551965!16s%2Fg%2F11vb7n6nmk!19sChIJD6Fpf8U1zJQR5CRCAbbDOuE?authuser=0&hl=pt-BR&rclk=1,,google_maps_scraper
bb53003560fb6e95,Manicure |Fernanda Maciel Ateliê,"Av. Jerson de Moura Lopes, 52 - Urbanova, São José dos Campos - SP, 12244-341, Brasil",-23.1812349,-45.9542355,+55 12 98830-5666,Mostrar horário de funcionamento da semana,instagram.com,,"5,0",50,Manicure,Fechado · Abre seg. às 08:00,https://www.google.com/maps/place/Manicure+%7CFernanda+Maciel+Ateli%C3%AA/data=!4m7!3m6!1s0x94cc373d247354eb:0x1555508986450fff!8m2!3d-23.1812349!4d-45.9542355!16s%2Fg%2F11wmmzh9p3!19sChIJ61RzJD03zJQR_w9FholQVRU?authuser=0&hl=pt-BR&rclk=1,,google_maps_scraper
0738a637290cbdf4,Manzoni Arquitetura,"Av. Ironman Victor Garrido, 563 - Sala 06 - Urbanova, São José dos Campos - SP, 12244-392, Brasil",-23.2012141,-45.9486755,+55 12 99670-1224,Mostrar horário de funcionamento da semana,manzoniarquitetura.com.br,,"4,7",47,Arquiteto,Fechado · Abre seg. às 09:00,https://www.google.com/maps/place/Manzoni+Arquitetura/data=!4m7!3m6!1s0x94cc357882a0b651:0xb2d7594a5bd084a5!8m2!3d-23.2012141!4d-45.9486755!16s%2Fg%2F11clsymj2x!19sChIJUbaggng1zJQRpYTQW0pZ17I?authuser=0&hl=pt-BR&rclk=1,,google_maps_scraper
2468e3d78aaf4b07,Maple Bear São José dos Campos,"Av. Linneu de Moura, 1095 - Urbanova, São José dos Campos - SP, 12244-380, Brasil",-23.1971144,-45.9178807,+55 12 3209-8318,Mostrar horário de funcionamento da semana,maplebearsjc.com.br,,,,Escola bilíngue,Fechado · Abre seg. às 07:00,https://www.google.com/maps/place/Maple+Bear+S%C3%A3o+Jos%C3%A9+dos+Campos/data=!4m7!3m6!1s0x94cc35e7a1c5d2a5:0x74c2738241149544!8m2!3d-23.1971144!4d-45.9178807!16s%2Fg%2F1jglwv9mb!19sChIJpdLFoec1zJQRRJUUQYJzwnQ?authuser=0&hl=pt-BR&rclk=1,,google_maps_scraper
8408c9f7023bdd48,Marcenaria Urbanova,"Av. Shishima Hifumi, 1770 - Urbanova, São José dos Campos - SP, 12244-000, Brasil",-23.2116017,-45.9530849,+55 12 99765-5705,,,,"1,0",10,Marceneiro,,https://www.google.com/maps/place/Marcenaria+Urbanova/data=!4m7!3m6!1s0x94cc35d209a2964d:0x909d1a619ab91e39!8m2!3d-23.2116017!4d-45.9530849!16s%2Fg%2F1q662fd89!19sChIJTZaiCdI1zJQROR65mmEanZA?authuser=0&hl=pt-BR&rclk=1,,google_maps_scraper
267769b6adfb9871,Mareschi Odontologia - São José dos Campos,"Av. Shishima Hifumi, 2434 - Sala 7 - Urbanova, São José dos Campos - SP, 12244-000, Brasil",-23.2037144,-45.9464162,+55 12 98228-9185,Mostrar horário de funcionamento da semana,api.whatsapp.com,,"5,0",50,Dentista,Fechado · Abre seg. às 08:00,https://www.google.com/maps/place/Mareschi+Odontologia+-+S%C3%A3o+Jos%C3%A9+dos+Campos/data=!4m7!3m6!1s0x94cc35c530e6024f:0x700d29f972df1753!8m2!3d-23.2037144!4d-45.9464162!16s%2Fg%2F11sq5075cd!19sChIJTwLmMMU1zJQRUxffcvkpDXA?authuser=0&hl=pt-BR&rclk=1,,google_maps_scraper
cc01971209b9f0f2,Maria Filó - Padaria Artesanal,"Av. Shishima Hifumi, 2010 - Urbanova, São José dos Campos - SP, 12244-000, Brasil",-23.1993414,-45.9361684,+55 12 99667-9755,Mostrar horário de funcionamento da semana,instagram.com,,"3,9",39,Padaria,Fechado · Abre dom. às 07:00,https://www.google.com/maps/place/Maria+Fil%C3%B3+-+Padaria+Artesanal/data=!4m7!3m6!1s0x94cc3534a9d0ea05:0xbf995bbe0fd4d8c8!8m2!3d-23.1993414!4d-45.9361684!16s%2Fg%2F11tg7963_5!19sChIJBerQqTQ1zJQRyNjUD75bmb8?authuser=0&hl=pt-BR&rclk=1,,google_maps_scraper
03f1063115999c55,MC Ferragem Armada | Ferro e Aço,"Av. Ironman Victor Garrido, 691 - Urbanova, São José dos Campos - SP, 12244-491, Brasil",-23.2020794,-45.9501816,+55 12 3949-1778,Mostrar horário de funcionamento da semana,mcferragem.com.br,,"4,9",49,Distribuidor de aço,Fechado · Abre seg. às 08:00,https://www.google.com/maps/place/MC+Ferragem+Armada+%7C+Ferro+e+A%C3%A7o/data=!4m7!3m6!1s0x94cc342f15cd8779:0x940939eb3bbf4fe0!8m2!3d-23.2020794!4d-45.9501816!16s%2Fg%2F1q66lnw64!19sChIJeYfNFS80zJQR4E-_O-s5CZQ?authuser=0&hl=pt-BR&rclk=1,,google_maps_scraper
d8e3a7b6fc37c1f7,Medical auxiliar summer consultation of neighborhood of Urbanova,"C. Músico José Mira Figueroa, 2A, 03008 Urbanova, Alicante, Espanha",38.2792965,-0.5228578,+34 965 91 96 50,Mostrar horário de funcionamento da semana,san.gva.es,,"4,0",40,Centro médico,Fechado · Abre seg. às 08:00,https://www.google.com/maps/place/Medical+auxiliar+summer+consultation+of+neighborhood+of+Urbanova/data=!4m7!3m6!1s0xd624986db2ed501:0xfeb0f9bd25cefa98!8m2!3d38.2792965!4d-0.5228578!16s%2Fg%2F11cms8t9pv!19sChIJAdUu24ZJYg0RmPrOJb35sP4?authuser=0&hl=pt-BR&rclk=1,,google_maps_scraper
559c7934022ae01e,Mercado Fruit City,"Av. Shishima Hifumi, 2728 - Urbanova, São José dos Campos - SP, 12244-000, Brasil",-23.198394,-45.935236,+55 12 3949-1854,Mostrar horário de funcionamento da semana,,,"4,5",45,Mercado,Fechado · Abre dom. às 07:00,https://www.google.com/maps/place/Mercado+Fruit+City/data=!4m7!3m6!1s0x94cc35d1ad89f82f:0x3bc1476895f094db!8m2!3d-23.198394!4d-45.935236!16s%2Fg%2F1q665htgn!19sChIJL_iJrdE1zJQR25TwlWhHwTs?authuser=0&hl=pt-BR&rclk=1,,google_maps_scraper
6785c5288f16cf85,Minuto Pão de Açúcar,"R. Máximo Brogliato, 450 - Urbanova, São José dos Campos - SP, 12244-493, Brasil",-23.2003132,-45.9476218,+55 800 779 6761,Mostrar horário de funcionamento da semana,paodeacucar.com,,"4,2",42,Supermercado,Fechado · Abre dom. às 08:00,https://www.google.com/maps/place/Minuto+P%C3%A3o+de+A%C3%A7%C3%BAcar/data=!4m7!3m6!1s0x94cc3575ef5877af:0xc557a0d41abf6d93!8m2!3d-23.2003132!4d-45.9476218!16s%2Fg%2F11bwnb1zwr!19sChIJr3dY73U1zJQRk22_GtSgV8U?authuser=0&hl=pt-BR&rclk=1,,google_maps_scraper
096cc88a87b3f6a4,Mio Sogno di Gelato - Urbanova,"Madrid Open Mall - Av. Shishima Hifumi, 2101 - Loja 12 - Urbanova, São José dos Campos - SP, 12244-000, Brasil",-23.2042134,-45.9406185,+55 12 99218-1384,Mostrar horário de funcionamento da semana,miosognodigelato.com.br,,"4,8",48,Sorveteria,Fechado · Abre dom. às 12:00,https://www.google.com/maps/place/Mio+Sogno+di+Gelato+-+Urbanova/data=!4m7!3m6!1s0x94cc3526e2103aa1:0x5716106e3871cc72!8m2!3d-23.2042134!4d-45.9406185!16s%2Fg%2F11v62zdqdb!19sChIJoToQ4iY1zJQRcsxxOG4QFlc?authuser=0&hl=pt-BR&rclk=1,,google_maps_scraper
69ff170dad2ce0b5,Mood Company,"R. Maria José Guido Brogliato Freire, 139 - Urbanova, São José dos Campos - SP, 12244-440, Brasil",-23.2025561,-45.9436733,+55 12 98867-1970,Mostrar horário de funcionamento da semana,lojaintegrada.com.br,,,,Loja de Roupa,Fechado · Abre seg. às 09:00,https://www.google.com/maps/place/Mood+Company/data=!4m7!3m6!1s0x94cc35540ea5e949:0x7db72f4f66270338!8m2!3d-23.2025561!4d-45.9436733!16s%2Fg%2F11w9ytz2g7!19sChIJSemlDlQ1zJQROAMnZk8vt30?authuser=0&hl=pt-BR&rclk=1,,google_maps_scraper
1e761f2364bfc3e9,Moppe Pré-Escola e I Grau,"Av. Linneu de Moura, 1655 - Urbanova, São José dos Campos - SP, 12244-380, Brasil",-23.1965154,-45.9189744,+55 12 3949-1754,,moppe.com.br,,,,Escola de ensino fundamental,,https://www.google.com/maps/place/Moppe+Pr%C3%A9-Escola+e+I+Grau/data=!4m7!3m6!1s0x94cc35dc3fb6e6e7:0xb9dd7a8801bb686b!8m2!3d-23.1965154!4d-45.9189744!16s%2Fg%2F1tdlcv7w!19sChIJ5-a2P9w1zJQRa2i7AYh63bk?authuser=0&hl=pt-BR&rclk=1,,google_maps_scraper
7d0a21df68f9142a,MRV Serviços de Engenharia Ltda,"Av. Carlos Alberto R Souza, 440 - Urbanova, São José dos Campos - SP, 12244-595, Brasil",-23.1988257,-45.9509335,+55 12 3949-2926,,mrv.com.br,,"5,0",50,Engenheiro,,https://www.google.com/maps/place/MRV+Servi%C3%A7os+de+Engenharia+Ltda/data=!4m7!3m6!1s0x94cc3421e084ef8f:0x578f15c8f9643639!8m2!3d-23.1988257!4d-45.9509335!16s%2Fg%2F1wz53tpg!19sChIJj--E4CE0zJQROTZk-cgVj1c?authuser=0&hl=pt-BR&rclk=1,,google_maps_scraper
09a742d57532d3f6,Método DeRose Urbanova,"Avenida Ironman Victor Garrido, 450, Loteamento Urbanova II, São José dos Campos",-23.2025542,-45.9455164,+55 12 98258 1508,,,,,,amenity:college,,,node/5358922088,osm_overpass
9116f755497044e5,O Rei da Moto Elétrica - Urbanova I,"Av. Shishima Hifumi, 30 - Sala 3 - Urbanova, São José dos Campos - SP, 12244-000, Brasil",-23.1905698,-45.9320509,+55 12 99604-8432,Mostrar horário de funcionamento da semana,,,"4,8",48,Concessionária de motos elétricas,Fechado · Abre seg. às 08:00,https://www.google.com/maps/place/O+Rei+da+Moto+El%C3%A9trica+-+Urbanova+I/data=!4m7!3m6!1s0x94cc3540f9d89add:0x746fb1d533b0d4ed!8m2!3d-23.1905698!4d-45.9320509!16s%2Fg%2F11x0rbswns!19sChIJ3ZrY-UA1zJQR7dSwM9Wxb3Q?authuser=0&hl=pt-BR&rclk=1,,google_maps_scraper
0d2e3709db9e1bee,Oficina de Costura Virginia,"Av. Shishima Hifumi, 2442 - Urbanova, São José dos Campos - SP, 12244-390, Brasil",-23.2037465,-45.9464286,+55 12 3018-6535,Mostrar horário de funcionamento da semana,facebook.com,,"4,9",49,Costureira,Fechado · Abre seg. às 09:00,https://www.google.com/maps/place/Oficina+de+Costura+Virginia/data=!4m7!3m6!1s0x94cc342ff6da87ab:0x221df2e253327092!8m2!3d-23.2037465!4d-45.9464286!16s%2Fg%2F1q66x2lfx!19sChIJq4fa9i80zJQRknAyU-LyHSI?authuser=0&hl=pt-BR&rclk=1,,google_maps_scraper
938b9c65ebf06971,Olivah Bistrô,"Av. Ironman Victor Garrido, 51 - Urbanova, São José dos Campos - SP, 12244-392, Brasil",-23.2031947,-45.945882,+55 12 99166-1882,Mostrar horário de funcionamento da semana,olivahbistro.com.br,,"4,8",48,Bistrô,Fechado · Abre dom. às 12:00,https://www.google.com/maps/place/Olivah+Bistr%C3%B4/data=!4m7!3m6!1s0x94cc3561a60b7fb1:0x4406195008ac02d1!8m2!3d-23.2031947!4d-45.945882!16s%2Fg%2F11rgl_t3ck!19sChIJsX8LpmE1zJQR0QKsCFAZBkQ?authuser=0&hl=pt-BR&rclk=1,,google_maps_scraper
88c74cf5478928af,Onix Tintas - Urbanova,"R. Benedito Pinoti, 35 - Urbanova, São José dos Campos - SP, 12244-240, Brasil",-23.1975636,-45.9344491,+55 12 3931-6548,Mostrar horário de funcionamento da semana,,,"4,4",44,Loja de tintas,Fechado · Abre seg. às 07:30,https://www.google.com/maps/place/Onix+Tintas+-+Urbanova/data=!4m7!3m6!1s0x94cc35bf41cfbbfd:0x6a71d52cee3b3271!8m2!3d-23.1975636!4d-45.9344491!16s%2Fg%2F11flvz6wkn!19sChIJ_bvPQb81zJQRcTI77izVcWo?authuser=0&hl=pt-BR&rclk=1,,google_maps_scraper
877f1d091aed0c2e,Ortopedia,"Av. Linneu de Moura, 995 - Urbanova, São José dos Campos - SP, 12244-380, Brasil",-23.1984918,-45.9162888,,,,,,,Hospital,,https://www.google.com/maps/place/Ortopedia/data=!4m7!3m6!1s0x94cc35ec2836f773:0xbb429ee1e238e6e6!8m2!3d-23.1984918!4d-45.9162888!16s%2Fg%2F1yfj7pcqs!19sChIJc_c2KOw1zJQR5uY44uGeQrs?authuser=0&hl=pt-BR&rclk=1,,google_maps_scraper
99ccc28646ad2bef,Padaria Tentação II,"Av. Shishima Hifumi, 1870 - Urbanova, São José dos Campos - SP, 12244-000, Brasil",-23.2000659,-45.9370035,+55 12 3207-6532,Mostrar horário de funcionamento da semana,,,"4,2",42,Padaria,Fechado · Abre dom. às 06:00,https://www.google.com/maps/place/Padaria+Tenta%C3%A7%C3%A3o+II/data=!4m7!3m6!1s0x94cc35cd39c74d2b:0xfa82d1bf995c4c2a!8m2!3d-23.2000659!4d-45.9370035!16s%2Fg%2F1tghf7vt!19sChIJK03HOc01zJQRKkxcmb_Rgvo?authuser=0&hl=pt-BR&rclk=1,,google_maps_scraper
565a0c167fd640b4,Papelaria Tribo do Papel,"Centro Comercial Ironman - Av. Ironman Victor Garrido, 460 - Loja 7 - Urbanova, São José dos Campos - SP, 12244-392, Brasil",-23.2003539,-45.9471038,+55 12 3307-7954,Mostrar horário de funcionamento da semana,tribodopapel.com,,"4,9",49,Papelaria,Fechado · Abre seg. às 09:00,https://www.google.com/maps/place/Papelaria+Tribo+do+Papel/data=!4m7!3m6!1s0x94cc35eef632bb97:0x6a64a1ecfecb832b!8m2!3d-23.2003539!4d-45.9471038!16s%2Fg%2F11h32j98vw!19sChIJl7sy9u41zJQRK4PL_uyhZGo?authuser=0&hl=pt-BR&rclk=1,,google_maps_scraper
6f752bade494230d,Parque Ribeirão Vermelho,"Av. Maria de Lourdes Friggi - Urbanova, São José dos Campos - SP, Brasil",-23.1986381,-45.9608324,+55 12 3923-4752,Mostrar horário de funcionamento da semana,sjc.sp.gov.br,,"4,7",47,Parque,Fechado · Abre às 07:00,https://www.google.com/maps/place/Parque+Ribeir%C3%A3o+Vermelho/data=!4m7!3m6!1s0x94cc369ff4cbc91b:0x960fed8f0ac4334d!8m2!3d-23.1986381!4d-45.9608324!16s%2Fg%2F11bzx1fpb5!19sChIJG8nL9J82zJQRTTPECo_tD5Y?authuser=0&hl=pt-BR&rclk=1,,google_maps_scraper
e4812cdcb9478387,Parque Tecnológico - Univap,"Av. Shishima Hifumi, 2911 - Urbanova, São José dos Campos - SP, 12244-000, Brasil",-23.2084481,-45.9521379,+55 12 3947-1205,Mostrar horário de funcionamento da semana,parquetecnologico.com.br,,"4,7",47,Centro comercial,Fechado · Abre seg. às 08:00,https://www.google.com/maps/place/Parque+Tecnol%C3%B3gico+-+Univap/data=!4m7!3m6!1s0x94cc343af4a4d231:0xaaad8dfaeb1f0b63!8m2!3d-23.2084481!4d-45.9521379!16s%2Fg%2F11f3b_b_kv!19sChIJMdKk9Do0zJQRYwsf6_qNrao?authuser=0&hl=pt-BR&rclk=1,,google_maps_scraper
9a88b30cb2f123d6,Parque Tecnológico Univap,"Avenida Shishima Hifumi, 2911, Urbanova, São José dos Campos",-23.2085894,-45.952212,(12) 3947-1205,,,,,,office:educational_institution,,,node/8731658920,osm_overpass
641fa55b02dc9f14,Paróquia Santo Agostinho,"Av. João Paulo ||, 150 - Urbanova, São José dos Campos - SP, 12239-401, Brasil",-23.2029666,-45.9505351,+55 12 3949-1515,Mostrar horário de funcionamento da semana,paroquiasantoagostinho.org.br,,"4,8",48,Igreja,Fechado · Abre ter. às 08:00,https://www.google.com/maps/place/Par%C3%B3quia+Santo+Agostinho/data=!4m7!3m6!1s0x94cc342f75b4bed7:0x35197608f3f0d727!8m2!3d-23.2029666!4d-45.9505351!16s%2Fg%2F1q66z2qbg!19sChIJ1760dS80zJQRJ9fw8wh2GTU?authuser=0&hl=pt-BR&rclk=1,,google_maps_scraper
774958c9b17b86c5,Patio Urbanova Mall,"Av. Danilo Stanzani, 100 - Urbanova, São José dos Campos - SP, 12244-024, Brasil",-23.189379,-45.9326217,+55 12 99226-6266,,patiourbanovamall.com.br,,,,Shopping center,,https://www.google.com/maps/place/Patio+Urbanova+Mall/data=!4m7!3m6!1s0x94cc373e6f290119:0x34ca8ec0b1cbf351!8m2!3d-23.189379!4d-45.9326217!16s%2Fg%2F11y10z9jh0!19sChIJGQEpbz43zJQRUfPLscCOyjQ?authuser=0&hl=pt-BR&rclk=1,,google_maps_scraper
d1a9035ab88ab932,Pediatra em São José dos Campos SP - Dra Bruna Camargo Sebbe,"Avenida Ironman Victor Garrido, 460, loja 8 - Centro Empresarial Ironman, Av. Ironman Victor Garrido, 460 - Loja 8 - Urbanova, São José dos Campos - SP, 12244-392, Brasil",-23.2003539,-45.9471038,+55 12 97898-1698,Mostrar horário de funcionamento da semana,pediatrabruna.com.br,,"4,8",48,Pediatra,Fechado · Abre seg. às 07:00,https://www.google.com/maps/place/Pediatra+em+S%C3%A3o+Jos%C3%A9+dos+Campos+SP+-+Dra+Bruna+Camargo+Sebbe/data=!4m7!3m6!1s0x94cc4b170494706b:0xf5f5a7a7356b7e14!8m2!3d-23.2003539!4d-45.9471038!16s%2Fg%2F11rrkqzzcs!19sChIJa3CUBBdLzJQRFH5rNaen9fU?authuser=0&hl=pt-BR&rclk=1,,google_maps_scraper
2c3419318a5284a9,Personal Fit,"Av. Antônio Widmer, 815 - Urbanova, São José dos Campos - SP, 12244-390, Brasil",-23.2023808,-45.9533355,+55 12 98164-9885,Mostrar horário de funcionamento da semana,,,"4,8",48,Academia,Fechado · Abre seg. às 06:00,https://www.google.com/maps/place/Personal+Fit/data=!4m7!3m6!1s0x94cc35cd39c74c45:0x7d8f001d97f5932b!8m2!3d-23.2023808!4d-45.9533355!16s%2Fg%2F1wb8vt96!19sChIJRUzHOc01zJQRK5P1lx0Aj30?authuser=0&hl=pt-BR&rclk=1,,google_maps_scraper
d9f8db1487960854,Pet Max Thibor,"Av. Maria de Lourdes Friggi, 485 - Urbanova, São José dos Campos - SP, 12244-882, Brasil",-23.1993139,-45.9608185,+55 12 99184-7535,Mostrar horário de funcionamento da semana,petmaxthibor.com.br,,"5,0",50,Pet Shop,Fechado · Abre seg. às 09:00,https://www.google.com/maps/place/Pet+Max+Thibor/data=!4m7!3m6!1s0x94cc35ee92fbcbf7:0x99955c3f63bab18d!8m2!3d-23.1993139!4d-45.9608185!16s%2Fg%2F11j11cvxq6!19sChIJ98v7ku41zJQRjbG6Yz9clZk?authuser=0&hl=pt-BR&rclk=1,,google_maps_scraper
c9f0089509e03907,Pet Shop Banho e Tosa - Ubixu Pet Store,"esquina com - Avenida Shishima Hifumi, R. Benedito Pinoti - Urbanova I, São José dos Campos - SP, 12244-240, Brasil",-23.1976128,-45.9342749,+55 12 99675-9508,Mostrar horário de funcionamento da semana,taplink.cc,,"4,6",46,Pet Shop,Fechado · Abre seg. às 09:00,https://www.google.com/maps/place/Pet+Shop+Banho+e+Tosa+-+Ubixu+Pet+Store/data=!4m7!3m6!1s0x94cc35d0f77f6209:0x536d4bf4eb9ad1a1!8m2!3d-23.1976128!4d-45.9342749!16s%2Fg%2F1tfbzkzs!19sChIJCWJ_99A1zJQRodGa6_RLbVM?authuser=0&hl=pt-BR&rclk=1,,google_maps_scraper
1ebf01754e30da6a,PETSTOP PARK,"Av. Shishima Hifumi, 3062 - Urbanova IV, São José dos Campos - SP, 12244-000, Brasil",-23.2055098,-45.9517782,+55 12 98824-4027,Mostrar horário de funcionamento da semana,,,"5,0",50,Pet Shop,Fechado · Abre seg. às 07:00,https://www.google.com/maps/place/PETSTOP+PARK/data=!4m7!3m6!1s0x94cc3514cc1a418d:0xc5e007b87ca97ffe!8m2!3d-23.2055098!4d-45.9517782!16s%2Fg%2F11xl2xqn6x!19sChIJjUEazBQ1zJQR_n-pfLgH4MU?authuser=0&hl=pt-BR&rclk=1,,google_maps_scraper
a58112917ba69d66,PEV - URBANOVA,"Condomínio Chácara dos Eucaliptos, São José dos Campos - SP, Brasil",-23.1886392,-45.9317438,,Mostrar horário de funcionamento da semana,sjc.sp.gov.br,,"4,9",49,Centro de Reciclagem,Fechado · Abre às 08:00,https://www.google.com/maps/place/PEV+-+URBANOVA/data=!4m7!3m6!1s0x94cc371cf84198e7:0xe40bedcea689ae9a!8m2!3d-23.1886392!4d-45.9317438!16s%2Fg%2F11jndnvrs0!19sChIJ55hB-Bw3zJQRmq6Jps7tC-Q?authuser=0&hl=pt-BR&rclk=1,,google_maps_scraper
c4694380d3e8a809,Pirâmide Imóveis Urbanova,"Av. Shishima Hifumi, 650 - Urbanova, São José dos Campos - SP, 12244-000, Brasil",-23.1952796,-45.9328396,+55 12 99611-3126,Mostrar horário de funcionamento da semana,piramideimoveissjc.com.br,,"5,0",50,Imobiliária,Fechado · Abre seg. às 09:00,https://www.google.com/maps/place/Pir%C3%A2mide+Im%C3%B3veis+Urbanova/data=!4m7!3m6!1s0x94cc355d029bbb51:0xe9530c7d3bff5be!8m2!3d-23.1952796!4d-45.9328396!16s%2Fg%2F11wn5dkh53!19sChIJUbubAl01zJQRvvW_08cwlQ4?authuser=0&hl=pt-BR&rclk=1,,google_maps_scraper
6425998152df7855,Pizza do Engenheiro - Urbanova,"R. José Vieira Lopes da Costa, 66 - Urbanova, São José dos Campos - SP, Brasil",-23.182488,-45.9516069,+55 12 3949-2288,Mostrar horário de funcionamento da semana,pizzadoengenheiro.com.br,,"4,6",46,Pizzaria,Fechado · Abre dom. às 18:30,https://www.google.com/maps/place/Pizza+do+Engenheiro+-+Urbanova/data=!4m7!3m6!1s0x94cc352f78828b3d:0x5b49004bbb557d6d!8m2!3d-23.182488!4d-45.9516069!16s%2Fg%2F11ls1glggl!19sChIJPYuCeC81zJQRbX1Vu0sASVs?authuser=0&hl=pt-BR&rclk=1,,google_maps_scraper
3f4793cfd5745ba5,Pizzaria La Romani Urbanova,"Av. Shishima Hifumi, 2892 - Urbanova, São José dos Campos - SP, 12244-390, Brasil",-23.2046896,-45.9506817,+55 12 99771-4202,,laromani.pedidu.app,,"2,8",28,Pizzaria,,https://www.google.com/maps/place/Pizzaria+La+Romani+Urbanova/data=!4m7!3m6!1s0x94cc350002c9d705:0x137c5eb25b472ce6!8m2!3d-23.2046896!4d-45.9506817!16s%2Fg%2F11ypq28hfx!19sChIJBdfJAgA1zJQR5ixHW7JefBM?authuser=0&hl=pt-BR&rclk=1,,google_maps_scraper
fd60e5904050d865,PJ Transportes,"avenida, Tv. Lineu de Moura - Urbanova, São José dos Campos - SP, 12244-380, Brasil",-23.1898854,-45.9200586,+55 12 98271-1704,Mostrar horário de funcionamento da semana,,,"5,0",50,Serviço de transporte,Aberto 24 horas,https://www.google.com/maps/place/PJ+Transportes/data=!4m7!3m6!1s0x94cc35b0399cd8c1:0x647b45245a3cde0d!8m2!3d-23.1898854!4d-45.9200586!16s%2Fg%2F11flxqmjyn!19sChIJwdicObA1zJQRDd48WiRFe2Q?authuser=0&hl=pt-BR&rclk=1,,google_maps_scraper
48fd209e1922e05c,Pontal da Serra,"Av. Ironman Victor Garrido, 475 - Urbanova II, São José dos Campos - SP, 12244-392, Brasil",-23.2009619,-45.9479959,+55 12 3302-5557,,,,"4,5",45,Complexo de condomínio,,https://www.google.com/maps/place/Pontal+da+Serra/data=!4m7!3m6!1s0x94cc342ec08e3fa1:0xf2bc8391c6011f90!8m2!3d-23.2009619!4d-45.9479959!16s%2Fg%2F11g6hw18d9!19sChIJoT-OwC40zJQRkB8BxpGDvPI?authuser=0&hl=pt-BR&rclk=1,,google_maps_scraper
5f0d41499954d1fc,Ponto da Parrilla,"Av. Shishima Hifumi, 1971 - Urbanova, São José dos Campos - SP, 12244-000, Brasil",-23.2040997,-45.9425605,+55 12 99683-9810,Fechado · Abre dom. às 11:30·Outros horários,instagram.com,,"4,7",47,Restaurante,,https://www.google.com/maps/place/Ponto+da+Parrilla/data=!4m7!3m6!1s0x94cc3528d29a006f:0x9e72123bd09a673d!8m2!3d-23.2040997!4d-45.9425605!16s%2Fg%2F11w3mg455p!19sChIJbwCa0ig1zJQRPWea0DsScp4?authuser=0&hl=pt-BR&rclk=1,,google_maps_scraper
ae03ca2900658c3a,Popular Pet - Clínica Veterinária 24h - Urbanova,"R. Máximo Brogliato, 450 - Loja 12 - Urbanova, São José dos Campos - SP, 12244-493, Brasil",-23.2005248,-45.9474531,+55 12 99761-1333,Mostrar horário de funcionamento da semana,servicos.popularpet.com.br,,"4,7",47,Serviço veterinário de emergência,Aberto 24 horas,https://www.google.com/maps/place/Popular+Pet+-+Cl%C3%ADnica+Veterin%C3%A1ria+24h+-+Urbanova/data=!4m7!3m6!1s0x94cc35d360c41c3d:0xf525e548a3e9f25f!8m2!3d-23.2005248!4d-45.9474531!16s%2Fg%2F11vb5mgx4s!19sChIJPRzEYNM1zJQRX_Lpo0jlJfU?authuser=0&hl=pt-BR&rclk=1,,google_maps_scraper
b6cad6c752e2484e,Popular Pet - SPA Urbanova,"Av. Ironman Victor Garrido, 392 - Urbanova, São José dos Campos - SP, 12244-493, Brasil",-23.2004816,-45.9474568,+55 12 98836-1333,Mostrar horário de funcionamento da semana,popularpet.com.br,,"2,0",20,Banho e tosa,Fechado · Abre seg. às 08:00,https://www.google.com/maps/place/Popular+Pet+-+SPA+Urbanova/data=!4m7!3m6!1s0x94cc356dd7c2c553:0x8f8784d6203aaf09!8m2!3d-23.2004816!4d-45.9474568!16s%2Fg%2F11w3n49w2h!19sChIJU8XC1201zJQRCa86INaEh48?authuser=0&hl=pt-BR&rclk=1,,google_maps_scraper
26cdd4ef4575036a,Popular Pet - Urbanova,"Av. Ironman Victor Garrido, 450 - LOJA 2 - Urbanova, São José dos Campos - SP, 12244-493, Brasil",-23.2005026,-45.9476892,+55 12 99767-9009,Mostrar horário de funcionamento da semana,popularpet.com.br,,"4,3",43,Pet Shop,Fechado · Abre dom. às 08:00,https://www.google.com/maps/place/Popular+Pet+-+Urbanova/data=!4m7!3m6!1s0x94cc342eb8757c09:0xd450bfbeb0a962b0!8m2!3d-23.2005026!4d-45.9476892!16s%2Fg%2F11c32lqcmz!19sChIJCXx1uC40zJQRsGKpsL6_UNQ?authuser=0&hl=pt-BR&rclk=1,,google_maps_scraper
6892962c7886720c,Portaria Central,"Avenida Shishima Hifumi, 2911, Urbanova, São José dos Campos",-23.2071115,-45.952834,+55 12 3947-1040,,www.univap.br,,,,amenity:university,,,node/8731454380,osm_overpass
