place_id,nome,endereco,latitude,longitude,telefone,horario,website,avaliacao,total_reviews,categoria,status_negocio,google_maps_url,fonte
68259c89fd77e42e,Trianon Clube,"· Av. Japão, 250",-23.3053777,-45.9799363,,,,"4,6",724,Club,,https://www.google.com/maps/place/Trianon+Clube/data=!4m7!3m6!1s0x94cdcb6f9d174305:0xb905f359b9d5faf1!8m2!3d-23.3053777!4d-45.9799363!16s%2Fg%2F1t_khnf0!19sChIJBUMXnW_LzZQR8frVuVnzBbk?authuser=0&hl=pt-BR&rclk=1,scraper_gmaps|clube Jacareí - SP|clube de campo Jacareí - SP|clube recreativo Jacareí - SP|clube social Jacareí - SP|grêmio recreativo Jacareí - SP|associação esportiva Jacareí - SP|centro esportivo Jacareí - SP
d83f691f43c88821,CLUBE JACAREÍ,"· Av. Benedita Martins Siqueira, 293",-23.2932836,-45.9852546,,,,"3,5",2,Club,,https://www.google.com/maps/place/CLUBE+JACARE%C3%8D/data=!4m7!3m6!1s0x94cdccaf56e87925:0x5fa367f7d92e5d66!8m2!3d-23.2932836!4d-45.9852546!16s%2Fg%2F11j_z0g8_r!19sChIJJXnoVq_MzZQRZl0u2fdno18?authuser=0&hl=pt-BR&rclk=1,scraper_gmaps|clube Jacareí - SP|clube de campo Jacareí - SP
c03e30d830874259,Ponte Preta Futebol Clube,"· R. Orual Salvador, 159",-23.2912708,-45.9625916,,,,"4,4",151,Clube de futebol,,https://www.google.com/maps/place/Ponte+Preta+Futebol+Clube/data=!4m7!3m6!1s0x94cdcb4133dba951:0x6570737051585c53!8m2!3d-23.2912708!4d-45.9625916!16s%2Fg%2F1tfxht91!19sChIJUanbM0HLzZQRU1xYUXBzcGU?authuser=0&hl=pt-BR&rclk=1,scraper_gmaps|clube de campo Jacareí - SP|associação esportiva Jacareí - SP|quadra esportiva Jacareí - SP|futebol society Jacareí - SP
8237680d913e7b5d,CLUBE ATLETICO BOA VONTADE,,-23.3080495,-45.9075021,,,,"4,8",79,Clube,,https://www.google.com/maps/place/CLUBE+ATLETICO+BOA+VONTADE/data=!4m7!3m6!1s0x94cdcb8d1d53cc4f:0x40d0bdd98794c8fb!8m2!3d-23.3080495!4d-45.9075021!16s%2Fg%2F11f9w6vq63!19sChIJT8xTHY3LzZQR-8iUh9m90EA?authuser=0&hl=pt-BR&rclk=1,scraper_gmaps|clube de campo Jacareí - SP|clube recreativo Jacareí - SP|associação recreativa Jacareí - SP|associação esportiva Jacareí - SP
4f8c29c87e8089f3,Campo futebol do Esporte Clube Elvira,,-23.3011153,-45.990973,,,,"4,4",22,Clube,,https://www.google.com/maps/place/Campo+futebol+do+Esporte+Clube+Elvira/data=!4m7!3m6!1s0x94cdcd2c5eb974fd:0x4527c7ee973181f4!8m2!3d-23.3011153!4d-45.990973!16s%2Fg%2F11rfn2cq4f!19sChIJ_XS5XizNzZQR9IExl-7HJ0U?authuser=0&hl=pt-BR&rclk=1,scraper_gmaps|clube de campo Jacareí - SP|associação esportiva Jacareí - SP|centro esportivo Jacareí - SP
fe84761b9392d193,Campo do Balneário - Rugby Jacareí,,-23.3187618,-45.9706878,,,,"4,5",187,Campo de rúgbi,,https://www.google.com/maps/place/Campo+do+Balne%C3%A1rio+-+Rugby+Jacare%C3%AD/data=!4m7!3m6!1s0x94cdcb0ce4f96eab:0x1f30dc64b7c15f60!8m2!3d-23.3187618!4d-45.9706878!16s%2Fg%2F11gl364zsq!19sChIJq2755AzLzZQRYF_Bt2TcMB8?authuser=0&hl=pt-BR&rclk=1,scraper_gmaps|clube de campo Jacareí - SP|associação esportiva Jacareí - SP|quadra esportiva Jacareí - SP
8236fcb0cc2a8ecf,Clube e Escola de Tiro O Rancho,,-23.2916908,-45.9103725,,,,"5,0",136,Clube de tiro,,https://www.google.com/maps/place/Clube+e+Escola+de+Tiro+O+Rancho/data=!4m7!3m6!1s0x94cdcb195a7e958f:0x2ee822f0b338b96b!8m2!3d-23.2916908!4d-45.9103725!16s%2Fg%2F11frdtw40l!19sChIJj5V-WhnLzZQRa7k4s_Ai6C4?authuser=0&hl=pt-BR&rclk=1,scraper_gmaps|clube de campo Jacareí - SP|clube recreativo Jacareí - SP|clube social Jacareí - SP|associação esportiva Jacareí - SP
38880947c6930454,SANTA BOLA,,-23.2974469,-45.9618924,,,,"4,7",188,Clube de futebol,,https://www.google.com/maps/place/SANTA+BOLA/data=!4m7!3m6!1s0x94cdcb6b241af2c1:0xe308051d84ec153e!8m2!3d-23.2974469!4d-45.9618924!16s%2Fg%2F11ddx_r00p!19sChIJwfIaJGvLzZQRPhXshB0FCOM?authuser=0&hl=pt-BR&rclk=1,scraper_gmaps|clube de campo Jacareí - SP|associação esportiva Jacareí - SP|centro esportivo Jacareí - SP|quadra esportiva Jacareí - SP|futebol society Jacareí - SP
a8d17180f8584801,Esporte Clube Vila Garcia,,-23.3660906,-46.0186987,,,,"4,0",3,Club,,https://www.google.com/maps/place/Esporte+Clube+Vila+Garcia/data=!4m7!3m6!1s0x94cdcdd34fc0fe71:0xc927b7d164e4a3a1!8m2!3d-23.3660906!4d-46.0186987!16s%2Fg%2F11p65rghqk!19sChIJcf7AT9PNzZQRoaPkZNG3J8k?authuser=0&hl=pt-BR&rclk=1,scraper_gmaps|clube de campo Jacareí - SP|associação esportiva Jacareí - SP
beb7010247f26705,Clube de Campo Santa Rita AESJ,,-23.19104,-45.9220527,,,,"4,6",1701,Clube,,https://www.google.com/maps/place/Clube+de+Campo+Santa+Rita+AESJ/data=!4m7!3m6!1s0x94cc35e74d5bb5f3:0xbe8ba65dcd72436d!8m2!3d-23.19104!4d-45.9220527!16s%2Fg%2F1yfjb5dkq!19sChIJ87VbTec1zJQRbUNyzV2mi74?authuser=0&hl=pt-BR&rclk=1,scraper_gmaps|clube de campo Jacareí - SP
d2fbe73babed62a2,Espaço Esporte,"· Av. Pereira Campos, 222",-23.3118283,-45.9800143,,,,"4,2",78,Campo de futebol,,https://www.google.com/maps/place/Espa%C3%A7o+Esporte/data=!4m7!3m6!1s0x94cdcc82a309c109:0xc411495100f219da!8m2!3d-23.3118283!4d-45.9800143!16s%2Fg%2F11cjh_4h5r!19sChIJCcEJo4LMzZQR2hnyAFFJEcQ?authuser=0&hl=pt-BR&rclk=1,scraper_gmaps|clube de campo Jacareí - SP|associação esportiva Jacareí - SP|centro esportivo Jacareí - SP|quadra esportiva Jacareí - SP|futebol society Jacareí - SP
3d11846495cd9c5c,Organização Campo das Oliveiras,"· Av. Siqueira Campos, 263",-23.2995315,-45.9610817,,,,"4,6",161,Casa funerária,,https://www.google.com/maps/place/Organiza%C3%A7%C3%A3o+Campo+das+Oliveiras/data=!4m7!3m6!1s0x94cdcbd8de2bd807:0x5f47d170c7300ab!8m2!3d-23.2995315!4d-45.9610817!16s%2Fg%2F11s595tr1g!19sChIJB9gr3tjLzZQRqwBzDBd99AU?authuser=0&hl=pt-BR&rclk=1,scraper_gmaps|clube de campo Jacareí - SP
4ee24f084af82fa3,Arena Califórnia,,-23.2797222,-45.945,,,,"4,5",244,Campo de futebol,,https://www.google.com/maps/place/Arena+Calif%C3%B3rnia/data=!4m7!3m6!1s0x94cdcb262f7a04f9:0xd06f353112675fdb!8m2!3d-23.2797222!4d-45.945!16s%2Fg%2F11gbt_8vkg!19sChIJ-QR6LybLzZQR219nEjE1b9A?authuser=0&hl=pt-BR&rclk=1,scraper_gmaps|clube de campo Jacareí - SP|associação recreativa Jacareí - SP|associação esportiva Jacareí - SP|centro esportivo Jacareí - SP|quadra esportiva Jacareí - SP|futebol society Jacareí - SP
d255ab63e800a7b4,Estádio Municipal Du Cambusano,,-23.2742019,-45.9418735,,,,"3,9",148,Estádio de futebol,,https://www.google.com/maps/place/Est%C3%A1dio+Municipal+Du+Cambusano/data=!4m7!3m6!1s0x94cdcb29e29adeaf:0xefae1aea316a4405!8m2!3d-23.2742019!4d-45.9418735!16s%2Fg%2F11bwc519yy!19sChIJr96a4inLzZQRBURqMeoaru8?authuser=0&hl=pt-BR&rclk=1,scraper_gmaps|clube de campo Jacareí - SP
bfee56d9c6089de4,Recanto Tico & Teco,,-23.2325944,-46.0690953,,,,,,Clube de campo,,https://www.google.com/maps/place/Recanto+Tico+%26+Teco/data=!4m7!3m6!1s0x94cc2f9d24f11703:0xb314491b1480c12a!8m2!3d-23.2325944!4d-46.0690953!16s%2Fg%2F11y2fx0m_1!19sChIJAxfxJJ0vzJQRKsGAFBtJFLM?authuser=0&hl=pt-BR&rclk=1,scraper_gmaps|clube de campo Jacareí - SP
fefa56226942ec95,Sesi Jacareí,,-23.3162746,-45.9884404,,,,"4,7",403,Organização de serviço social,,https://www.google.com/maps/place/Sesi+Jacare%C3%AD/data=!4m7!3m6!1s0x94cdcc8490770d5d:0x9c44bdb375b9d4a2!8m2!3d-23.3162746!4d-45.9884404!16s%2Fg%2F11b6hp9qym!19sChIJXQ13kITMzZQRotS5dbO9RJw?authuser=0&hl=pt-BR&rclk=1,scraper_gmaps|clube recreativo Jacareí - SP|clube social Jacareí - SP|associação esportiva Jacareí - SP|SESI Jacareí - SP|SESC Jacareí - SP
4561f634ebcb0310,Clube da Saudade,"· Av. Pensilvânia, 367",-23.3023068,-45.9827176,,,,"4,0",265,Salão de dança,,https://www.google.com/maps/place/Clube+da+Saudade/data=!4m7!3m6!1s0x94cdcc9f9dcc8da3:0x40f640c29ba462b6!8m2!3d-23.3023068!4d-45.9827176!16s%2Fg%2F1tcwh2xz!19sChIJo43MnZ_MzZQRtmKkm8JA9kA?authuser=0&hl=pt-BR&rclk=1,scraper_gmaps|clube recreativo Jacareí - SP
cdba4616af9fffc2,Clube de Aventureiros Oàsis,"· Av. Joaquim M. de Lima, 927",-23.3083754,-46.0063965,,,,,,Clube recreativo,,https://www.google.com/maps/place/Clube+de+Aventureiros+O%C3%A0sis/data=!4m7!3m6!1s0x94cdcd93a5a25bad:0xb27e22078226ab29!8m2!3d-23.3083754!4d-46.0063965!16s%2Fg%2F11p04qybpf!19sChIJrVuipZPNzZQRKasmggcifrI?authuser=0&hl=pt-BR&rclk=1,scraper_gmaps|clube recreativo Jacareí - SP|clube social Jacareí - SP|grêmio recreativo Jacareí - SP
f27bc63ddcf2faa6,Clube de Tênis de Mesa - Sara Santos,,-23.3154881,-45.9596745,,,,"5,0",23,Clube de tênis de mesa,,https://www.google.com/maps/place/Clube+de+T%C3%AAnis+de+Mesa+-+Sara+Santos/data=!4m7!3m6!1s0x94cdcb09d3f2f7c7:0x5b3b54e6a8823568!8m2!3d-23.3154881!4d-45.9596745!16s%2Fg%2F11tsb2n729!19sChIJx_fy0wnLzZQRaDWCqOZUO1s?authuser=0&hl=pt-BR&rclk=1,scraper_gmaps|clube recreativo Jacareí - SP|associação esportiva Jacareí - SP
10c29f5a02c0446f,Clubinho Jacarei,,-23.3024899,-45.9630616,,,,"3,7",6,"R. Olímpio Catão, 278",,https://www.google.com/maps/place/Clubinho+Jacarei/data=!4m7!3m6!1s0x94cdcb6d0109417b:0x6a186c8ef562b3ea!8m2!3d-23.3024899!4d-45.9630616!16s%2Fg%2F1vgx1wh7!19sChIJe0EJAW3LzZQR6rNi9Y5sGGo?authuser=0&hl=pt-BR&rclk=1,scraper_gmaps|clube recreativo Jacareí - SP|clube social Jacareí - SP
ea9c95a4513e82a8,Society & Beach Vila Camp,"· Av. Getúlio Dorneles Vargas, 1900",-23.273308,-45.9506738,,,,"4,7",60,Escola de esportes,,https://www.google.com/maps/place/Society+%26+Beach+Vila+Camp/data=!4m7!3m6!1s0x94cdcb1173a3a01f:0xfe23a3c696caa18!8m2!3d-23.273308!4d-45.9506738!16s%2Fg%2F11lgs27lff!19sChIJH6CjcxHLzZQRGKpsaTw64g8?authuser=0&hl=pt-BR&rclk=1,scraper_gmaps|clube social Jacareí - SP|quadra esportiva Jacareí - SP|escolinha de futebol Jacareí - SP|futebol society Jacareí - SP
a8faac5a5fda07cf,Grêmio Recreativo e Desportivo de São Paulo,,-23.3438224,-46.081089,,,,"4,8",87,Clube,,https://www.google.com/maps/place/Gr%C3%AAmio+Recreativo+e+Desportivo+de+S%C3%A3o+Paulo/data=!4m7!3m6!1s0x94cdd317b6ec490f:0xd7b37baa4a5f656e!8m2!3d-23.3438224!4d-46.081089!16s%2Fg%2F11rsqw5m69!19sChIJD0nsthfTzZQRbmVfSqp7s9c?authuser=0&hl=pt-BR&rclk=1,scraper_gmaps|grêmio recreativo Jacareí - SP
7f0d7a19ada96ce2,Grêmio Recreativo Drogaria São Paulo,,-23.3438908,-46.0806324,,,,"4,5",52,Drogaria,,https://www.google.com/maps/place/Gr%C3%AAmio+Recreativo+Drogaria+S%C3%A3o+Paulo/data=!4m7!3m6!1s0x94cdd2ee7b0d3a35:0xf621e4dcc4d68b7e!8m2!3d-23.3438908!4d-46.0806324!16s%2Fg%2F11b6ht3ddb!19sChIJNToNe-7SzZQRfovWxNzkIfY?authuser=0&hl=pt-BR&rclk=1,scraper_gmaps|grêmio recreativo Jacareí - SP
58ebd2f2e0d88b2b,Grêmio Recreativo Nestlé de Caçapava,,-23.1082332,-45.7210129,,,,"4,4",839,Clube,,https://www.google.com/maps/place/Gr%C3%AAmio+Recreativo+Nestl%C3%A9+de+Ca%C3%A7apava/data=!4m7!3m6!1s0x94cc5184b642ba2f:0xcd41f3c07afdba50!8m2!3d-23.1082332!4d-45.7210129!16s%2Fg%2F1tdnm740!19sChIJL7pCtoRRzJQRULr9esDzQc0?authuser=0&hl=pt-BR&rclk=1,scraper_gmaps|grêmio recreativo Jacareí - SP
d7af557a95151e13,Grêmio Esportivo Jardim das Indústrias,,-23.2280826,-45.9179917,,,,"4,6",288,Ginásio poliesportivo,,https://www.google.com/maps/place/Gr%C3%AAmio+Esportivo+Jardim+das+Ind%C3%BAstrias/data=!4m7!3m6!1s0x94cc357145b09321:0x826a5389923c2484!8m2!3d-23.2280826!4d-45.9179917!16s%2Fg%2F1ydnqg6t2!19sChIJIZOwRXE1zJQRhCQ8kolTaoI?authuser=0&hl=pt-BR&rclk=1,scraper_gmaps|grêmio recreativo Jacareí - SP
920e33b329b1808a,Clube Recreativo CERET,,-23.5596647,-46.557685,,,,"4,6",22578,Clube recreativo,,https://www.google.com/maps/place/Clube+Recreativo+CERET/data=!4m7!3m6!1s0x94ce5e802fcb4339:0x9abe00ac4133a5f4!8m2!3d-23.5596647!4d-46.557685!16s%2Fg%2F11b62s027m!19sChIJOUPLL4BezpQR9KUzQawAvpo?authuser=0&hl=pt-BR&rclk=1,scraper_gmaps|grêmio recreativo Jacareí - SP
1efba86bfdee6a0e,Grêmio Recreativo Esportivo Ibate,"· Av. Santa Rufina, 141",-21.9612445,-48.0031661,,,,"4,5",412,Associação / organização,,https://www.google.com/maps/place/Gr%C3%AAmio+Recreativo+Esportivo+Ibate/data=!4m7!3m6!1s0x94b863549e610d7d:0xb559088dcaa37235!8m2!3d-21.9612445!4d-48.0031661!16s%2Fg%2F11b6hrzxj9!19sChIJfQ1hnlRjuJQRNXKjyo0IWbU?authuser=0&hl=pt-BR&rclk=1,scraper_gmaps|grêmio recreativo Jacareí - SP
c7da9faa8b24d91b,Grêmio da Cedrap,,-23.3950314,-45.656123,,,,"4,5",2,Clube recreativo,,https://www.google.com/maps/place/Gr%C3%AAmio+da+Cedrap/data=!4m7!3m6!1s0x94cda125bceea725:0x317846b8534c2cdd!8m2!3d-23.3950314!4d-45.656123!16s%2Fg%2F11hjcff8yb!19sChIJJafuvCWhzZQR3SxMU7hGeDE?authuser=0&hl=pt-BR&rclk=1,scraper_gmaps|grêmio recreativo Jacareí - SP
0097117859fc1f01,Associação Engenheiros Arquitetos Jacarei,"· Av. Pensilvânia, 531",-23.3016155,-45.9833115,,,,"4,5",79,Associação de arquitetos,,https://www.google.com/maps/place/Associa%C3%A7%C3%A3o+Engenheiros+Arquitetos+Jacarei/data=!4m7!3m6!1s0x94cdcca1c357d001:0x5e3b0c6f3548b2e7!8m2!3d-23.3016155!4d-45.9833115!16s%2Fg%2F1tgfr762!19sChIJAdBXw6HMzZQR57JINW8MO14?authuser=0&hl=pt-BR&rclk=1,scraper_gmaps|associação recreativa Jacareí - SP|associação esportiva Jacareí - SP
5050a8bea5c2ebd0,Associação Comercial e Industrial de Jacarei,,-23.305859,-45.9695762,,,,"4,5",82,Consultoria empresarial,,https://www.google.com/maps/place/Associa%C3%A7%C3%A3o+Comercial+e+Industrial+de+Jacarei/data=!4m7!3m6!1s0x94ce048104cc3d77:0x72e9a74cdb17bba1!8m2!3d-23.305859!4d-45.9695762!16s%2Fg%2F1vk6_bt_!19sChIJdz3MBIEEzpQRobsX20yn6XI?authuser=0&hl=pt-BR&rclk=1,scraper_gmaps|associação recreativa Jacareí - SP
c47147fa8a432a5a,Associação Fênix,,-23.260499,-45.930865,,,,"4,7",140,Associação / organização,,https://www.google.com/maps/place/Associa%C3%A7%C3%A3o+F%C3%AAnix/data=!4m7!3m6!1s0x94cc352e018b8869:0x15bd7155d79bf223!8m2!3d-23.260499!4d-45.930865!16s%2Fg%2F11cm0pl59q!19sChIJaYiLAS41zJQRI_Kb11VxvRU?authuser=0&hl=pt-BR&rclk=1,scraper_gmaps|associação recreativa Jacareí - SP
0b99bba9dd0a6f87,Associação Recreativa Cultural Islamica,,-23.5016088,-46.4330729,,,,"4,8",81,Associação / organização,,https://www.google.com/maps/place/Associa%C3%A7%C3%A3o+Recreativa+Cultural+Islamica/data=!4m7!3m6!1s0x94ce63e685887b09:0x64000d0e46515b83!8m2!3d-23.5016088!4d-46.4330729!16s%2Fg%2F1vhklpfx!19sChIJCXuIheZjzpQRg1tRRg4NAGQ?authuser=0&hl=pt-BR&rclk=1,scraper_gmaps|associação recreativa Jacareí - SP
5cafa4ee2f78e092,Associação Recreativa Centro de Vôo A Vela Ipua,,-23.0412591,-45.7710971,,,,"4,8",125,Associação / organização,,https://www.google.com/maps/place/Associa%C3%A7%C3%A3o+Recreativa+Centro+de+V%C3%B4o+A+Vela+Ipua/data=!4m7!3m6!1s0x94cc517a8942e629:0x8593110f26b6a64b!8m2!3d-23.0412591!4d-45.7710971!16s%2Fg%2F1tczx1d6!19sChIJKeZCiXpRzJQRS6a2Jg8Rk4U?authuser=0&hl=pt-BR&rclk=1,scraper_gmaps|associação recreativa Jacareí - SP
6a537a05c5788ae9,Associação Cultural Recreativa e Esportiva Carrão,,-23.5488988,-46.5310564,,,,"4,6",203,Associação / organização,,https://www.google.com/maps/place/Associa%C3%A7%C3%A3o+Cultural+Recreativa+e+Esportiva+Carr%C3%A3o/data=!4m7!3m6!1s0x94ce5e0a23c130a9:0x87360a85bd0e19e0!8m2!3d-23.5488988!4d-46.5310564!16s%2Fg%2F1vq9ndl6!19sChIJqTDBIwpezpQR4BkOvYUKNoc?authuser=0&hl=pt-BR&rclk=1,scraper_gmaps|associação recreativa Jacareí - SP
0424f1728e0ab973,Recrearte Eventos,,-23.2940729,-45.964329,,,,"4,7",12,Empresa de organização de eventos,,https://www.google.com/maps/place/Recrearte+Eventos/data=!4m7!3m6!1s0x94cdcb41bad22653:0xf4aa472f87994811!8m2!3d-23.2940729!4d-45.964329!16s%2Fg%2F11bz07k8n4!19sChIJUybSukHLzZQREUiZhy9HqvQ?authuser=0&hl=pt-BR&rclk=1,scraper_gmaps|associação recreativa Jacareí - SP
fc86f53af2fda32a,AlegriAA Grupo de Apoio a Adoção,,-23.2817461,-45.9375335,,,,"4,9",37,Organização não governamental,,https://www.google.com/maps/place/AlegriAA+Grupo+de+Apoio+a+Ado%C3%A7%C3%A3o/data=!4m7!3m6!1s0x94cdcb08fb8e1b71:0x534d8c5d331ea48d!8m2!3d-23.2817461!4d-45.9375335!16s%2Fg%2F11vkldk5cq!19sChIJcRuO-wjLzZQRjaQeM12MTVM?authuser=0&hl=pt-BR&rclk=1,scraper_gmaps|associação recreativa Jacareí - SP
fb5c4e969dd5fc0b,Associação Recreativa Empregados Correios Arco SP,"· Av. Mário Lopes Leão, 700",-23.651264,-46.7132932,,,,"4,1",19,Associação / organização,,https://www.google.com/maps/place/Associa%C3%A7%C3%A3o+Recreativa+Empregados+Correios+Arco+SP/data=!4m7!3m6!1s0x94ce51aa756033b3:0x1766768f05f5fa91!8m2!3d-23.651264!4d-46.7132932!16s%2Fg%2F1tdlwd4r!19sChIJszNgdapRzpQRkfr1BY92Zhc?authuser=0&hl=pt-BR&rclk=1,scraper_gmaps|associação recreativa Jacareí - SP
2a9b38de738eed63,Associação Esportiva e Recreativa Campo Belo,,-23.6269014,-46.6704425,,,,"4,6",335,Clube esportivo,,https://www.google.com/maps/place/Associa%C3%A7%C3%A3o+Esportiva+e+Recreativa+Campo+Belo/data=!4m7!3m6!1s0x94ce5a77e8b40335:0x89483b51f213a05f!8m2!3d-23.6269014!4d-46.6704425!16s%2Fg%2F1vxcxjxp!19sChIJNQO06HdazpQRX6AT8lE7SIk?authuser=0&hl=pt-BR&rclk=1,scraper_gmaps|associação recreativa Jacareí - SP
a759ccbb46f418d0,Associação Recreativa Soc Func Serv Publ Diadema,,-23.6834612,-46.6303539,,,,"4,2",406,Associação / organização,,https://www.google.com/maps/place/Associa%C3%A7%C3%A3o+Recreativa+Soc+Func+Serv+Publ+Diadema/data=!4m7!3m6!1s0x94ce44e1a57cab63:0x97c0ebef8ca802d0!8m2!3d-23.6834612!4d-46.6303539!16s%2Fg%2F1tczllkb!19sChIJY6t8peFEzpQR0AKojO_rwJc?authuser=0&hl=pt-BR&rclk=1,scraper_gmaps|associação recreativa Jacareí - SP
1d0064141409df94,Associação Recreativa dos Empregados dos Correios - Arco São Paulo Metropolitana,,-23.5277436,-46.7382933,,,,"4,6",104,Associação / organização,,https://www.google.com/maps/place/Associa%C3%A7%C3%A3o+Recreativa+dos+Empregados+dos+Correios+-+Arco+S%C3%A3o+Paulo+Metropolitana/data=!4m7!3m6!1s0x94cef8b7f594ac01:0xfb66f0987ddae912!8m2!3d-23.5277436!4d-46.7382933!16s%2Fg%2F1ptxcc18d!19sChIJAayU9bf4zpQREunafZjwZvs?authuser=0&hl=pt-BR&rclk=1,scraper_gmaps|associação recreativa Jacareí - SP
320c5f9e42541757,ACREPA - Associação Cultural e Recreativa da Vila Paulicéia,,-23.6703013,-46.5828103,,,,"5,0",12,Clube,,https://www.google.com/maps/place/ACREPA+-+Associa%C3%A7%C3%A3o+Cultural+e+Recreativa+da+Vila+Paulic%C3%A9ia/data=!4m7!3m6!1s0x94ce43007f33acbf:0xfb999069ac04f32f!8m2!3d-23.6703013!4d-46.5828103!16s%2Fg%2F11vynxtckm!19sChIJv6wzfwBDzpQRL_MErGmQmfs?authuser=0&hl=pt-BR&rclk=1,scraper_gmaps|associação recreativa Jacareí - SP
cb3f43cb9da3aecf,ACRESP ASSOCIAÇÃO CULTURAL RECREATIVA DOS SERVIDORES PÚBLICOS,,-23.5455038,-46.641232,,,,"4,5",33,Associação / organização,,https://www.google.com/maps/place/ACRESP+ASSOCIA%C3%87%C3%83O+CULTURAL+RECREATIVA+DOS+SERVIDORES+P%C3%9ABLICOS/data=!4m7!3m6!1s0x94ce58518eaa9857:0x71b6533f96da90e7!8m2!3d-23.5455038!4d-46.641232!16s%2Fg%2F1pv1yjb9q!19sChIJV5iqjlFYzpQR55Dalj9TtnE?authuser=0&hl=pt-BR&rclk=1,scraper_gmaps|associação recreativa Jacareí - SP
e65230ad01e52c21,S.E.R. Vila Maria,,-23.5177109,-46.5910177,,,,"4,5",825,Associação / organização,,https://www.google.com/maps/place/S.E.R.+Vila+Maria/data=!4m7!3m6!1s0x94ce58caccc34b59:0x87b2c5382b8c990e!8m2!3d-23.5177109!4d-46.5910177!16s%2Fg%2F1td065bm!19sChIJWUvDzMpYzpQRDpmMKzjFsoc?authuser=0&hl=pt-BR&rclk=1,scraper_gmaps|associação recreativa Jacareí - SP
a5b50f39b1684209,Associação Esportiva Du Sol,,-23.3049037,-45.967949,,,,"4,9",15,Associação / organização,,https://www.google.com/maps/place/Associa%C3%A7%C3%A3o+Esportiva+Du+Sol/data=!4m7!3m6!1s0x94cdcbed4120022d:0x2bfa870b5ab99acb!8m2!3d-23.3049037!4d-45.967949!16s%2Fg%2F11tn5nscgl!19sChIJLQIgQe3LzZQRy5q5WguH-is?authuser=0&hl=pt-BR&rclk=1,scraper_gmaps|associação esportiva Jacareí - SP
5e5c13586d05f21e,"PRO10 Arena - Esporte, Bar e Gastronomia","· Av. Sergio Prado, 181",-23.2971182,-45.9761102,,,,"4,8",77,Restaurante,,"https://www.google.com/maps/place/PRO10+Arena+-+Esporte,+Bar+e+Gastronomia/data=!4m7!3m6!1s0x94cdcb4a25f4a5bf:0x43b05777d0d508f3!8m2!3d-23.2971182!4d-45.9761102!16s%2Fg%2F11mlzhdxw0!19sChIJv6X0JUrLzZQR8wjV0HdXsEM?authuser=0&hl=pt-BR&rclk=1",scraper_gmaps|associação esportiva Jacareí - SP|centro esportivo Jacareí - SP|quadra esportiva Jacareí - SP
ba97db5e4f2b5e12,Associação Esportiva Jacareí Rugby - Escritório,,-23.2922747,-45.9566601,,,,,,Clube de rúgbi,,https://www.google.com/maps/place/Associa%C3%A7%C3%A3o+Esportiva+Jacare%C3%AD+Rugby+-+Escrit%C3%B3rio/data=!4m7!3m6!1s0x94cdcb1d58fb352b:0xc14781e365ad9bcb!8m2!3d-23.2922747!4d-45.9566601!16s%2Fg%2F11ghtdp9jp!19sChIJKzX7WB3LzZQRy5utZeOBR8E?authuser=0&hl=pt-BR&rclk=1,scraper_gmaps|associação esportiva Jacareí - SP
4e7398cbaf33753b,EducaMais Espaço Centro,,-23.3057587,-45.9685778,,,,"4,4",342,Associação / organização,,https://www.google.com/maps/place/EducaMais+Espa%C3%A7o+Centro/data=!4m7!3m6!1s0x94cdcc80131af159:0xbe20379f41dc08a4!8m2!3d-23.3057587!4d-45.9685778!16s%2Fg%2F1yfjd8c7j!19sChIJWfEaE4DMzZQRpAjcQZ83IL4?authuser=0&hl=pt-BR&rclk=1,scraper_gmaps|associação esportiva Jacareí - SP|centro esportivo Jacareí - SP|quadra esportiva Jacareí - SP|escolinha de natação Jacareí - SP
9818bb3c6ba2f5b0,JACAREÍ BASKETBALL,,-23.3057419,-45.9686114,,,,"5,0",1,Clube de basquete,,https://www.google.com/maps/place/JACARE%C3%8D+BASKETBALL/data=!4m7!3m6!1s0x94cdcb6fcedc0001:0x7cce2399b4b0ad39!8m2!3d-23.3057419!4d-45.9686114!16s%2Fg%2F11sdntdtvs!19sChIJAQDczm_LzZQROa2wtJkjznw?authuser=0&hl=pt-BR&rclk=1,scraper_gmaps|associação esportiva Jacareí - SP|centro esportivo Jacareí - SP
3552443bbe1f6ced,FC Atlético Paulistano JAC,,-23.2562782,-45.9892804,,,,"5,0",2,Clube de futebol,,https://www.google.com/maps/place/FC+Atl%C3%A9tico+Paulistano+JAC/data=!4m7!3m6!1s0x94cc335746837977:0x141752379c8fd068!8m2!3d-23.2562782!4d-45.9892804!16s%2Fg%2F11yzdjcc8t!19sChIJd3mDRlczzJQRaNCPnDdSFxQ?authuser=0&hl=pt-BR&rclk=1,scraper_gmaps|associação esportiva Jacareí - SP
0cff48feb2560237,Bunkyo - Associação Cultural e Desportiva Nipo-Brasileira de Jacareí,"· Av. Lucas Nogueira Garcês, 1940",-23.3044,-46.0123,,,,"4,6",402,Associação / organização,,https://www.google.com/maps/place/Bunkyo+-+Associa%C3%A7%C3%A3o+Cultural+e+Desportiva+Nipo-Brasileira+de+Jacare%C3%AD/data=!4m7!3m6!1s0x94cdccda3f4a4875:0xcf17c9dd90a7de18!8m2!3d-23.3044!4d-46.0123!16s%2Fg%2F11c51v_2p7!19sChIJdUhKP9rMzZQRGN6nkN3JF88?authuser=0&hl=pt-BR&rclk=1,scraper_gmaps|associação esportiva Jacareí - SP
45241d721fbefaf9,Espaço Esportivo Constantino dos Santos,,-23.3632178,-46.0145979,,,,"4,4",7,Clube,,https://www.google.com/maps/place/Espa%C3%A7o+Esportivo+Constantino+dos+Santos/data=!4m7!3m6!1s0x94cdcddbf449a265:0x9cb401725cae4325!8m2!3d-23.3632178!4d-46.0145979!16s%2Fg%2F11sc_zrwhx!19sChIJZaJJ9NvNzZQRJUOuXHIBtJw?authuser=0&hl=pt-BR&rclk=1,scraper_gmaps|associação esportiva Jacareí - SP
fd8fe19728a79505,DOM SPORTS e BAR,"· Av. das Notas, 323",-23.2688236,-45.9428024,,,,"4,7",30,Quadra de esportes,,https://www.google.com/maps/place/DOM+SPORTS+e+BAR/data=!4m7!3m6!1s0x94cc35546dc936cf:0xad4c706b1688dc4d!8m2!3d-23.2688236!4d-45.9428024!16s%2Fg%2F11rd0wyvn8!19sChIJzzbJbVQ1zJQRTdyIFmtwTK0?authuser=0&hl=pt-BR&rclk=1,scraper_gmaps|associação esportiva Jacareí - SP|centro esportivo Jacareí - SP|quadra esportiva Jacareí - SP
734d38dc60403392,Recanto Três Corações,,-23.2999509,-45.9315602,,,,"5,0",3,Clube,,https://www.google.com/maps/place/Recanto+Tr%C3%AAs+Cora%C3%A7%C3%B5es/data=!4m7!3m6!1s0x94cdcb00101cec01:0xfb083b243f213ed0!8m2!3d-23.2999509!4d-45.9315602!16s%2Fg%2F11ms535g3g!19sChIJAewcEADLzZQR0D4hPyQ7CPs?authuser=0&hl=pt-BR&rclk=1,scraper_gmaps|associação esportiva Jacareí - SP|quadra esportiva Jacareí - SP
141c1d67bccceff9,Esporte Clube Borabola,,-23.287125,-45.9564928,,,,"3,1",7,Clube,,https://www.google.com/maps/place/Esporte+Clube+Borabola/data=!4m7!3m6!1s0x94cdcb005aab9dd3:0xd5ed57e881b164e8!8m2!3d-23.287125!4d-45.9564928!16s%2Fg%2F11ldryzmcm!19sChIJ052rWgDLzZQR6GSxgehX7dU?authuser=0&hl=pt-BR&rclk=1,scraper_gmaps|associação esportiva Jacareí - SP|centro esportivo Jacareí - SP
527e63da696a9258,Academia de Futebol Nacional do Vale,,-23.3008453,-45.9922903,,,,"5,0",1,Clube,,https://www.google.com/maps/place/Academia+de+Futebol+Nacional+do+Vale/data=!4m7!3m6!1s0x94cdcd6f9dd6bda3:0x60a810f647d4b8ee!8m2!3d-23.3008453!4d-45.9922903!16s%2Fg%2F11xn4hp4v2!19sChIJo73WnW_NzZQR7rjUR_YQqGA?authuser=0&hl=pt-BR&rclk=1,scraper_gmaps|associação esportiva Jacareí - SP
57bcc6091f4396b7,Associação Vem Viver Jacareí - Vivva Residencial Clube,"· Condomínio Vem Viver - Avenida Antônio Abdon Abrahão, 235",-23.2692152,-45.9296312,,,,"4,7",210,Complexo de condomínio,,https://www.google.com/maps/place/Associa%C3%A7%C3%A3o+Vem+Viver+Jacare%C3%AD+-+Vivva+Residencial+Clube/data=!4m7!3m6!1s0x94cdcacf103e6bb5:0xfb18519798080234!8m2!3d-23.2692152!4d-45.9296312!16s%2Fg%2F11c76f_zt_!19sChIJtWs-EM_KzZQRNAIImJdRGPs?authuser=0&hl=pt-BR&rclk=1,scraper_gmaps|associação esportiva Jacareí - SP
0472411ff3eb9b3c,Pesqueiro Tavarinho,,-23.3237849,-45.9600852,,,,"4,6",221,Clube de pesca,,https://www.google.com/maps/place/Pesqueiro+Tavarinho/data=!4m7!3m6!1s0x94cdcb34c22625f9:0x2a45f834086b8ad7!8m2!3d-23.3237849!4d-45.9600852!16s%2Fg%2F11h_6cs4bk!19sChIJ-SUmwjTLzZQR14prCDT4RSo?authuser=0&hl=pt-BR&rclk=1,scraper_gmaps|associação esportiva Jacareí - SP
bafe79ba5329af90,Chute Inicial Corinthians - Jacareí,,-23.3059069,-45.9848647,,,,"4,9",242,Treino de futebol,,https://www.google.com/maps/place/Chute+Inicial+Corinthians+-+Jacare%C3%AD/data=!4m7!3m6!1s0x94cdcde2928fce55:0x8e682275e534c4e8!8m2!3d-23.3059069!4d-45.9848647!16s%2Fg%2F11vdj_qwgj!19sChIJVc6PkuLNzZQR6MQ05XUiaI4?authuser=0&hl=pt-BR&rclk=1,scraper_gmaps|associação esportiva Jacareí - SP|quadra esportiva Jacareí - SP|escolinha de futebol Jacareí - SP|futebol society Jacareí - SP
c6d9b0c4870322ca,Clube de Tiro Águia do Vale,,-23.3165968,-45.9710409,,,,"4,3",18,Clube de tiro,,https://www.google.com/maps/place/Clube+de+Tiro+%C3%81guia+do+Vale/data=!4m7!3m6!1s0x94cdcbcc4372bd7d:0x9281c6abca671b91!8m2!3d-23.3165968!4d-45.9710409!16s%2Fg%2F11gw2_s0m4!19sChIJfb1yQ8zLzZQRkRtnyqvGgZI?authuser=0&hl=pt-BR&rclk=1,scraper_gmaps|associação esportiva Jacareí - SP
d1462640851dfe28,Espaço Kaza Bella,,-23.3035097,-45.9759368,,,,"5,0",4,Clube,,https://www.google.com/maps/place/Espa%C3%A7o+Kaza+Bella/data=!4m7!3m6!1s0x94cdcb00f9fc6ae9:0x4b62febeb0254005!8m2!3d-23.3035097!4d-45.9759368!16s%2Fg%2F11t7jhzkbw!19sChIJ6Wr8-QDLzZQRBUAlsL7-Yks?authuser=0&hl=pt-BR&rclk=1,scraper_gmaps|associação esportiva Jacareí - SP
53601795520153ca,carbontri,,-23.2963758,-45.9627735,,,,,,Clube,,https://www.google.com/maps/place/carbontri/data=!4m7!3m6!1s0x94cdcb6aed76aaab:0x29a6ee243d613f86!8m2!3d-23.2963758!4d-45.9627735!16s%2Fg%2F11tnk5b73s!19sChIJq6p27WrLzZQRhj9hPSTupik?authuser=0&hl=pt-BR&rclk=1,scraper_gmaps|associação esportiva Jacareí - SP
8b0e3c1feccb1510,Centro de treinamento mestre Josué,,-23.3005398,-45.9698501,,,,"5,0",36,Escola de lutas,,https://www.google.com/maps/place/Centro+de+treinamento+mestre+Josu%C3%A9/data=!4m7!3m6!1s0x94cdcb218b3d4c75:0xee48a5dff03d9542!8m2!3d-23.3005398!4d-45.9698501!16s%2Fg%2F11shy6mm70!19sChIJdUw9iyHLzZQRQpU98N-lSO4?authuser=0&hl=pt-BR&rclk=1,scraper_gmaps|associação esportiva Jacareí - SP|centro esportivo Jacareí - SP
f6f1c731c80f0bba,Tatame cidadão,,-23.3074329,-45.9796996,,,,,,Clube de artes marciais,,https://www.google.com/maps/place/Tatame+cidad%C3%A3o/data=!4m7!3m6!1s0x94cdcb004bfc0a89:0x3ecc574ca0ed939d!8m2!3d-23.3074329!4d-45.9796996!16s%2Fg%2F11nqy8d_p1!19sChIJiQr8SwDLzZQRnZPtoExXzD4?authuser=0&hl=pt-BR&rclk=1,scraper_gmaps|associação esportiva Jacareí - SP
007819868d9c5e32,Vibe Squad,,-23.3031578,-45.9564715,,,,,,Clube,,https://www.google.com/maps/place/Vibe+Squad/data=!4m7!3m6!1s0x94cdcb27f61d79f9:0xaa87d7283211f92a!8m2!3d-23.3031578!4d-45.9564715!16s%2Fg%2F11wj5lnshl!19sChIJ-Xkd9ifLzZQRKvkRMijXh6o?authuser=0&hl=pt-BR&rclk=1,scraper_gmaps|associação esportiva Jacareí - SP
8075edcd76993a7d,3 Pontos Gestão de Eventos,,-23.2882195,-45.9490368,,,,"5,0",79,Empresa de organização de eventos,,https://www.google.com/maps/place/3+Pontos+Gest%C3%A3o+de+Eventos/data=!4m7!3m6!1s0x8c5237b6fc0b1023:0x7d3a134be07f6360!8m2!3d-23.2882195!4d-45.9490368!16s%2Fg%2F11smny5_54!19sChIJIxAL_LY3UowRYGN_4EsTOn0?authuser=0&hl=pt-BR&rclk=1,scraper_gmaps|associação esportiva Jacareí - SP
0a9776919bd1b44e,AVA - Arqueiros do Vale,,-23.3067989,-45.966364,,,,"5,0",22,Centro de arco e flecha,,https://www.google.com/maps/place/AVA+-+Arqueiros+do+Vale/data=!4m7!3m6!1s0x94cdcbb9f417b067:0x8e011994e94ad263!8m2!3d-23.3067989!4d-45.966364!16s%2Fg%2F11h2q6zjl2!19sChIJZ7AX9LnLzZQRY9JK6ZQZAY4?authuser=0&hl=pt-BR&rclk=1,scraper_gmaps|associação esportiva Jacareí - SP
51e05fd92126aeb2,Eko Academia – Musculação e Ginástica em Jacareí,"· Av. Siqueira Campos, 875",-23.2950079,-45.957808,,,,"4,8",550,Academia,,https://www.google.com/maps/place/Eko+Academia+%E2%80%93+Muscula%C3%A7%C3%A3o+e+Gin%C3%A1stica+em+Jacare%C3%AD/data=!4m7!3m6!1s0x94cdcb15b8267437:0x6bb4a6fac5988476!8m2!3d-23.2950079!4d-45.957808!16s%2Fg%2F11bwgjkn8r!19sChIJN3QmuBXLzZQRdoSYxfqmtGs?authuser=0&hl=pt-BR&rclk=1,scraper_gmaps|associação esportiva Jacareí - SP|centro esportivo Jacareí - SP|academia de natação Jacareí - SP
1bcad4c1f4fc977f,Recanto Sol Nascente,,-23.2985804,-45.9095797,,,,"4,3",513,Restaurante,,https://www.google.com/maps/place/Recanto+Sol+Nascente/data=!4m7!3m6!1s0x94cdcbe971e961bd:0x6b7279316e7a26c9!8m2!3d-23.2985804!4d-45.9095797!16s%2Fg%2F11j2p4zb84!19sChIJvWHpcenLzZQRySZ6bjF5cms?authuser=0&hl=pt-BR&rclk=1,scraper_gmaps|associação esportiva Jacareí - SP
5095df973c0ce713,Academia Biofisic Jacareí,,-23.296972,-45.954326,,,,"4,6",134,Academia,,https://www.google.com/maps/place/Academia+Biofisic+Jacare%C3%AD/data=!4m7!3m6!1s0x94cdcbd8a786b357:0x6f8b2631a0ae9069!8m2!3d-23.296972!4d-45.954326!16s%2Fg%2F11n4r4jvvg!19sChIJV7OGp9jLzZQRaZCuoDEmi28?authuser=0&hl=pt-BR&rclk=1,scraper_gmaps|associação esportiva Jacareí - SP|academia de natação Jacareí - SP
669ca0fe83e51ac6,Estação do Esporte,,-23.3040188,-45.9655994,,,,"4,8",35,Loja de roupas esportivas,,https://www.google.com/maps/place/Esta%C3%A7%C3%A3o+do+Esporte/data=!4m7!3m6!1s0x94cdcb6dda4762d1:0xc09967b6226261e8!8m2!3d-23.3040188!4d-45.9655994!16s%2Fg%2F11b8ztljz8!19sChIJ0WJH2m3LzZQR6GFiIrZnmcA?authuser=0&hl=pt-BR&rclk=1,scraper_gmaps|centro esportivo Jacareí - SP
c54de8827300ab7c,Centro Poliesportivo Du Cambusano Cbat,,-23.3057419,-45.9686114,,,,,,Ginásio poliesportivo,,https://www.google.com/maps/place/Centro+Poliesportivo+Du+Cambusano+Cbat/data=!4m7!3m6!1s0x94cdcb4668467abf:0x4ea49ca065b809cd!8m2!3d-23.3057419!4d-45.9686114!16s%2Fg%2F11t9lv3559!19sChIJv3pGaEbLzZQRzQm4ZaCcpE4?authuser=0&hl=pt-BR&rclk=1,scraper_gmaps|centro esportivo Jacareí - SP
aac8dbc37b6b971a,Crismau Esportes Presentes,,-23.3060304,-45.9662492,,,,"4,6",23,Loja de artigos esportivos,,https://www.google.com/maps/place/Crismau+Esportes+Presentes/data=!4m7!3m6!1s0x94cdcb6e2829cf25:0x9cc1ee47b7b4079f!8m2!3d-23.3060304!4d-45.9662492!16s%2Fg%2F1tjt31dp!19sChIJJc8pKG7LzZQRnwe0t0fuwZw?authuser=0&hl=pt-BR&rclk=1,scraper_gmaps|centro esportivo Jacareí - SP
03eb3510474ac9cc,Km's Esporte,"· Av. Cel. Carlos Porto, n°39",-23.3048655,-45.9715864,,,,"5,0",11,Loja de roupas esportivas,,https://www.google.com/maps/place/Km%27s+Esporte/data=!4m7!3m6!1s0x94cdcb71f0614d83:0x739416560c254953!8m2!3d-23.3048655!4d-45.9715864!16s%2Fg%2F11gdkjy30p!19sChIJg01h8HHLzZQRU0klDFYWlHM?authuser=0&hl=pt-BR&rclk=1,scraper_gmaps|centro esportivo Jacareí - SP
6c790e259d266f93,Parque da Cidade,"· Av. Engenheiro Davi Monteiro Lino, 489",-23.3010734,-45.9657389,,,,"4,5",9447,Parque municipal,,https://www.google.com/maps/place/Parque+da+Cidade/data=!4m7!3m6!1s0x94cdcb695513f8ad:0x97d2fc9951f35b19!8m2!3d-23.3010734!4d-45.9657389!16s%2Fg%2F12hmnsklw!19sChIJrfgTVWnLzZQRGVvzUZn80pc?authuser=0&hl=pt-BR&rclk=1,scraper_gmaps|centro esportivo Jacareí - SP
98772d0d517a1635,Academia SportMania,"· Av. Cel. Carlos Porto, 128",-23.3045159,-45.9707852,,,,"4,8",152,Personal Trainer para mulheres,,https://www.google.com/maps/place/Academia+SportMania/data=!4m7!3m6!1s0x94cdcb6584b0feb7:0x891683b2630f70c!8m2!3d-23.3045159!4d-45.9707852!16s%2Fg%2F1tfk5k2j!19sChIJt_6whGXLzZQRDPcwJjtokQg?authuser=0&hl=pt-BR&rclk=1,scraper_gmaps|centro esportivo Jacareí - SP|quadra esportiva Jacareí - SP
0c46f9a89fac3ee0,Pista de Bicicross Luciano Bruni,"· Av. Pedra Santa, 300",-23.3088772,-45.957682,,,,"4,5",13,Centro de esportes de aventura,,https://www.google.com/maps/place/Pista+de+Bicicross+Luciano+Bruni/data=!4m7!3m6!1s0x94cdcb0bbc2742c7:0x7964068a729d7489!8m2!3d-23.3088772!4d-45.957682!16s%2Fg%2F11b6hxcby7!19sChIJx0InvAvLzZQRiXSdcooGZHk?authuser=0&hl=pt-BR&rclk=1,scraper_gmaps|centro esportivo Jacareí - SP
1a7cbc30a29d492c,Lions Gun Clube de Tiro LTDA,"· Av. Sen. Joaquim Miguel Martins de Siqueira, 375",-23.3005885,-45.967975,,,,"5,0",98,Clube de tiro,,https://www.google.com/maps/place/Lions+Gun+Clube+de+Tiro+LTDA/data=!4m7!3m6!1s0x94cdcb9aff9e075d:0xe8c3de9e0f16d84f!8m2!3d-23.3005885!4d-45.967975!16s%2Fg%2F11rlqg4x26!19sChIJXQee_5rLzZQRT9gWD57ew-g?authuser=0&hl=pt-BR&rclk=1,scraper_gmaps|centro esportivo Jacareí - SP
52f65a9dbb106b91,Core Sport Jacareí,,-23.3036109,-45.9667521,,,,"4,8",21,Clínica de Fisioterapia,,https://www.google.com/maps/place/Core+Sport+Jacare%C3%AD/data=!4m7!3m6!1s0x94cdcb23c428c583:0x435d9832ea5ac229!8m2!3d-23.3036109!4d-45.9667521!16s%2Fg%2F11c5qmj01s!19sChIJg8UoxCPLzZQRKcJa6jKYXUM?authuser=0&hl=pt-BR&rclk=1,scraper_gmaps|centro esportivo Jacareí - SP
b4fe8309fe74bab1,Escola KICKS F.C,"· Av. Pereira Campos, 222",-23.3116845,-45.9799546,,,,"4,3",112,Escola de esportes,,https://www.google.com/maps/place/Escola+KICKS+F.C/data=!4m7!3m6!1s0x94cdcb7d607bb8c1:0xb00ab0083d4949c3!8m2!3d-23.3116845!4d-45.9799546!16s%2Fg%2F11g86m5ymr!19sChIJwbh7YH3LzZQRw0lJPQiwCrA?authuser=0&hl=pt-BR&rclk=1,scraper_gmaps|centro esportivo Jacareí - SP|quadra esportiva Jacareí - SP|escolinha de futebol Jacareí - SP
2e2b77ad6d5b4e45,Cup Sports,,-23.3041261,-45.9627352,,,,"4,8",4,Loja de artigos esportivos,,https://www.google.com/maps/place/Cup+Sports/data=!4m7!3m6!1s0x94cdcb6d5f9e083f:0xc5335f6c3ab5ce37!8m2!3d-23.3041261!4d-45.9627352!16s%2Fg%2F1ptx_c8r0!19sChIJPwieX23LzZQRN861OmxfM8U?authuser=0&hl=pt-BR&rclk=1,scraper_gmaps|centro esportivo Jacareí - SP|quadra esportiva Jacareí - SP
6a09d14700f8f822,Arena Viking Unidade São João,"· Av. Pereira Campos, 222",-23.3116845,-45.9799546,,,,"5,0",70,Escola de jiu-jitsu,,https://www.google.com/maps/place/Arena+Viking+Unidade+S%C3%A3o+Jo%C3%A3o/data=!4m7!3m6!1s0x94cdcb2dddf84799:0x8cb363c7f0e4c324!8m2!3d-23.3116845!4d-45.9799546!16s%2Fg%2F11s7nr9lds!19sChIJmUf43S3LzZQRJMPk8Mdjs4w?authuser=0&hl=pt-BR&rclk=1,scraper_gmaps|centro esportivo Jacareí - SP|quadra esportiva Jacareí - SP
07a4a0cd0ccec211,"Complexo de Treinamento Especializado ""Oriano Villar"" - Personal Trainer e Reabilitação Funcional em Jacareí","· Av. Carlos Drumond de Andrade, 875",-23.2852934,-45.9605619,,,,"5,0",212,Personal trainer,,https://www.google.com/maps/place/Complexo+de+Treinamento+Especializado+%22Oriano+Villar%22+-+Personal+Trainer+e+Reabilita%C3%A7%C3%A3o+Funcional+em+Jacare%C3%AD/data=!4m7!3m6!1s0x94cdcbdc727b5ac1:0xf2a72d058b819858!8m2!3d-23.2852934!4d-45.9605619!16s%2Fg%2F11x16c1pcd!19sChIJwVp7ctzLzZQRWJiBiwUtp_I?authuser=0&hl=pt-BR&rclk=1,scraper_gmaps|centro esportivo Jacareí - SP
464a1c1346336760,Academia BlueFit Jacareí Centro,"· Av. Sen. Joaquim Miguel Martins de Siqueira, 400",-23.3003879,-45.9675915,,,,"4,6",33,Academia,,https://www.google.com/maps/place/Academia+BlueFit+Jacare%C3%AD+Centro/data=!4m7!3m6!1s0x94cdcbf0b2402253:0xa2e0467f660db867!8m2!3d-23.3003879!4d-45.9675915!16s%2Fg%2F11yv2jxqkz!19sChIJUyJAsvDLzZQRZ7gNZn9G4KI?authuser=0&hl=pt-BR&rclk=1,scraper_gmaps|centro esportivo Jacareí - SP|academia de natação Jacareí - SP
a94b311242de9138,Arena Viking - Escola de Artes Marciais,,-23.2975026,-45.9563608,,,,"5,0",233,Academia de artes marciais,,https://www.google.com/maps/place/Arena+Viking+-+Escola+de+Artes+Marciais/data=!4m7!3m6!1s0x94cdcb0ee7dc6303:0x89ec226c93878df6!8m2!3d-23.2975026!4d-45.9563608!16s%2Fg%2F11fmxp4yhs!19sChIJA2Pc5w7LzZQR9o2Hk2wi7Ik?authuser=0&hl=pt-BR&rclk=1,scraper_gmaps|centro esportivo Jacareí - SP|quadra esportiva Jacareí - SP
83a6b2b57e0a315a,Campo de futebol,,-23.3182606,-45.944571,,,,"4,4",5,Centro de esportes de aventura,,https://www.google.com/maps/place/Campo+de+futebol/data=!4m7!3m6!1s0x94cdcbfb8305de77:0xed430c27a3c2e03f!8m2!3d-23.3182606!4d-45.944571!16s%2Fg%2F11g_z1gr7d!19sChIJd94Fg_vLzZQRP-DCoycMQ-0?authuser=0&hl=pt-BR&rclk=1,scraper_gmaps|centro esportivo Jacareí - SP
16e426dbb22a2b7c,Lino Sport Bar - Escola São Paulo Jacareí,"· Jd - Avenida Ademar Pereira de Barros, Av. Santa Maria, 1462",-23.2827088,-45.9548245,,,,"4,4",272,Quadra de esportes,,https://www.google.com/maps/place/Lino+Sport+Bar+-+Escola+S%C3%A3o+Paulo+Jacare%C3%AD/data=!4m7!3m6!1s0x94cdcb3737f0c05f:0x8ae99fee0630f36c!8m2!3d-23.2827088!4d-45.9548245!16s%2Fg%2F1ts1tbmy!19sChIJX8DwNzfLzZQRbPMwBu6f6Yo?authuser=0&hl=pt-BR&rclk=1,scraper_gmaps|centro esportivo Jacareí - SP|quadra esportiva Jacareí - SP|escolinha de futebol Jacareí - SP|futebol society Jacareí - SP
d6154cc39841a566,Centro de Treinamentos VITA,"· Av. Ademar Pereira de Barros, 1483",-23.2818357,-45.9564639,,,,"5,0",200,Sala de fitness,,https://www.google.com/maps/place/Centro+de+Treinamentos+VITA/data=!4m7!3m6!1s0x94cdcb5a8743eeaf:0xa3dd0ef3ed7221!8m2!3d-23.2818357!4d-45.9564639!16s%2Fg%2F11ng6lnr28!19sChIJr-5Dh1rLzZQRIXLt8w7dowA?authuser=0&hl=pt-BR&rclk=1,scraper_gmaps|centro esportivo Jacareí - SP
52bc3e7015bff6ec,Half-pipe,"· Av. Santos Dumont, 97",-23.3083656,-45.971085,,,,"4,2",182,Pista de skate,,https://www.google.com/maps/place/Half-pipe/data=!4m7!3m6!1s0x94cdcb7aa35f1e23:0x89161900e52dca9a!8m2!3d-23.3083656!4d-45.971085!16s%2Fg%2F11c2pljl1z!19sChIJIx5fo3rLzZQRmsot5QAZFok?authuser=0&hl=pt-BR&rclk=1,scraper_gmaps|centro esportivo Jacareí - SP
9c63b9c978b4dade,Centro de treinamento de Artes marciais Leco,,-23.2944905,-45.9580684,,,,"5,0",11,Academia de artes marciais,,https://www.google.com/maps/place/Centro+de+treinamento+de+Artes+marciais+Leco/data=!4m7!3m6!1s0x94cdcb3c21e469c7:0x6801ae76b2c6c0d1!8m2!3d-23.2944905!4d-45.9580684!16s%2Fg%2F11szfx5b2q!19sChIJx2nkITzLzZQR0cDGsnauAWg?authuser=0&hl=pt-BR&rclk=1,scraper_gmaps|centro esportivo Jacareí - SP
ce1d6610fb021692,João Nego - Aulas de Futevôlei em Jacareí,"· Av. Pereira Campos, 222",-23.3116845,-45.9799546,,,,"5,0",2,Escola de esportes,,https://www.google.com/maps/place/Jo%C3%A3o+Nego+-+Aulas+de+Futev%C3%B4lei+em+Jacare%C3%AD/data=!4m7!3m6!1s0x94cdcb30be28274d:0xc694efdb911a1bdf!8m2!3d-23.3116845!4d-45.9799546!16s%2Fg%2F11ymnccmwq!19sChIJTScovjDLzZQR3xsakdvvlMY?authuser=0&hl=pt-BR&rclk=1,scraper_gmaps|centro esportivo Jacareí - SP|quadra esportiva Jacareí - SP
d4a12b5ec0999c0a,Nautilus Academia,,-23.2926676,-45.9645081,,,,"4,6",229,Academia,,https://www.google.com/maps/place/Nautilus+Academia/data=!4m7!3m6!1s0x94cdcb410d7c57f3:0xf4e1a715c67a2430!8m2!3d-23.2926676!4d-45.9645081!16s%2Fg%2F1tc_gcgz!19sChIJ81d8DUHLzZQRMCR6xhWn4fQ?authuser=0&hl=pt-BR&rclk=1,scraper_gmaps|centro esportivo Jacareí - SP|escolinha de natação Jacareí - SP|escola de natação Jacareí - SP|academia de natação Jacareí - SP
66fa0802b2f716f1,Esporte Clube Borabola,"· Av. José Carlos Fernandes, 87",-23.3128518,-45.9952257,,,,"5,0",2,Bar,,https://www.google.com/maps/place/Esporte+Clube+Borabola/data=!4m7!3m6!1s0x94cdcd832f838b21:0xf0c008c207d41d64!8m2!3d-23.3128518!4d-45.9952257!16s%2Fg%2F11pv3x7yr0!19sChIJIYuDL4PNzZQRZB3UB8IIwPA?authuser=0&hl=pt-BR&rclk=1,scraper_gmaps|centro esportivo Jacareí - SP
36731d75f34c3271,Quadra Poliesportiva do Parque Brasil,,-23.2913867,-45.9585168,,,,"4,4",162,Quadra de esportes,,https://www.google.com/maps/place/Quadra+Poliesportiva+do+Parque+Brasil/data=!4m7!3m6!1s0x94cdcb3e54f8085b:0x9aa468b41609c427!8m2!3d-23.2913867!4d-45.9585168!16s%2Fg%2F11gg9cbl7w!19sChIJWwj4VD7LzZQRJ8QJFrRopJo?authuser=0&hl=pt-BR&rclk=1,scraper_gmaps|quadra esportiva Jacareí - SP
d9ae6ab16ec871bf,Quadra Poliesportiva,,-23.3156223,-45.982182,,,,"3,9",39,Quadra de esportes,,https://www.google.com/maps/place/Quadra+Poliesportiva/data=!4m7!3m6!1s0x94cdcc822dd4bf73:0x902178db50192c98!8m2!3d-23.3156223!4d-45.982182!16s%2Fg%2F11cr_nx1xp!19sChIJc7_ULYLMzZQRmCwZUNt4IZA?authuser=0&hl=pt-BR&rclk=1,scraper_gmaps|quadra esportiva Jacareí - SP
c74902f3a58fdf94,Arena K12,,-23.2611307,-45.9261321,,,,"5,0",1,Quadra de pickleball,,https://www.google.com/maps/place/Arena+K12/data=!4m7!3m6!1s0x94cc35aad6fa8ddf:0x379fcb0e795a90dc!8m2!3d-23.2611307!4d-45.9261321!16s%2Fg%2F11nbbm9l4j!19sChIJ34361qo1zJQR3JBaeQ7Lnzc?authuser=0&hl=pt-BR&rclk=1,scraper_gmaps|quadra esportiva Jacareí - SP
66f3ba812bc1a101,Quadra poli,· Av. Maj. Acácio Ferreira,-23.3030435,-45.9773651,,,,"5,0",1,Quadra de esportes,,https://www.google.com/maps/place/Quadra+poli/data=!4m7!3m6!1s0x94cdcb5370f349ef:0x1d92ec866a493e3a!8m2!3d-23.3030435!4d-45.9773651!16s%2Fg%2F11vdbdbrg3!19sChIJ70nzcFPLzZQROj5Jaobskh0?authuser=0&hl=pt-BR&rclk=1,scraper_gmaps|quadra esportiva Jacareí - SP
33d06bbc2d385b4d,Quadra Poliesportiva,,-23.3023039,-45.9534344,,,,"3,0",4,Quadra de esportes,,https://www.google.com/maps/place/Quadra+Poliesportiva/data=!4m7!3m6!1s0x94cdcb0e4aedb9af:0xbbec0d389da29bce!8m2!3d-23.3023039!4d-45.9534344!16s%2Fg%2F1yfjq10q_!19sChIJr7ntSg7LzZQRzpuinTgN7Ls?authuser=0&hl=pt-BR&rclk=1,scraper_gmaps|quadra esportiva Jacareí - SP
5f11e5992a80f653,Quadra de Esportes Cidade Salvador,,-23.3072387,-45.9339559,,,,"5,0",1,Parque,,https://www.google.com/maps/place/Quadra+de+Esportes+Cidade+Salvador/data=!4m7!3m6!1s0x94cdcbb0d4ecfffb:0x58415b9636c84942!8m2!3d-23.3072387!4d-45.9339559!16s%2Fg%2F11h1dh0n2p!19sChIJ-__s1LDLzZQRQknINpZbQVg?authuser=0&hl=pt-BR&rclk=1,scraper_gmaps|quadra esportiva Jacareí - SP
eb514bd0a5a0737a,Mundial Futebol Society,,-23.3058084,-45.9848757,,,,"4,8",88,Quadra de esportes,,https://www.google.com/maps/place/Mundial+Futebol+Society/data=!4m7!3m6!1s0x94cdcd1b0c50c785:0x4e038990999cd1f2!8m2!3d-23.3058084!4d-45.9848757!16s%2Fg%2F11hdz6t_m_!19sChIJhcdQDBvNzZQR8tGcmZCJA04?authuser=0&hl=pt-BR&rclk=1,scraper_gmaps|quadra esportiva Jacareí - SP|futebol society Jacareí - SP
01f2e484d978f8ad,Quadra poliesportiva,,-23.2915569,-46.0343298,,,,,,Quadra de esportes,,https://www.google.com/maps/place/Quadra+poliesportiva/data=!4m7!3m6!1s0x94cc33cff4544d87:0xef18c313f4399fec!8m2!3d-23.2915569!4d-46.0343298!16s%2Fg%2F11s98bqy7p!19sChIJh01U9M8zzJQR7J859BPDGO8?authuser=0&hl=pt-BR&rclk=1,scraper_gmaps|quadra esportiva Jacareí - SP
006a7a0578de8bc6,Quadra Poliesportiva do Parque Meia Lua,,-23.2637094,-45.9628192,,,,"5,0",1,Quadra de esportes,,https://www.google.com/maps/place/Quadra+Poliesportiva+do+Parque+Meia+Lua/data=!4m7!3m6!1s0x94cc34b8eff774ef:0x16f5043c1133343!8m2!3d-23.2637094!4d-45.9628192!16s%2Fg%2F1ydnqg5pf!19sChIJ73T377g0zJQRQzMTwUNQbwE?authuser=0&hl=pt-BR&rclk=1,scraper_gmaps|quadra esportiva Jacareí - SP
a4ff8580bfbb0383,Quadra Poliesportiva,,-23.3129587,-46.0088322,,,,,,Quadra de esportes,,https://www.google.com/maps/place/Quadra+Poliesportiva/data=!4m7!3m6!1s0x94cdcded46b440bf:0xd3b17caa28f0baab!8m2!3d-23.3129587!4d-46.0088322!16s%2Fg%2F11s8ylrj7h!19sChIJv0C0Ru3NzZQRq7rwKKp8sdM?authuser=0&hl=pt-BR&rclk=1,scraper_gmaps|quadra esportiva Jacareí - SP
4148998917065d90,Quadra,"· Av. Engenheiro Davi Monteiro Lino, 232-326",-23.3010321,-45.9657193,,,,"4,0",2,Quadra de basquete,,https://www.google.com/maps/place/Quadra/data=!4m7!3m6!1s0x94cdcb6c01bed413:0x3fc9ad616158b976!8m2!3d-23.3010321!4d-45.9657193!16s%2Fg%2F11c520t1l8!19sChIJE9S-AWzLzZQRdrlYYWGtyT8?authuser=0&hl=pt-BR&rclk=1,scraper_gmaps|quadra esportiva Jacareí - SP
0e7dd06cce6c4cb6,Quadra de Esportes - Jardim Santo Antônio da Boa Vista,· Av. Rômulo Rossi,-23.3194864,-45.9273195,,,,,,Quadra de esportes,,https://www.google.com/maps/place/Quadra+de+Esportes+-+Jardim+Santo+Ant%C3%B4nio+da+Boa+Vista/data=!4m7!3m6!1s0x94cdcb3a0dc8889f:0x627010f76f7c826f!8m2!3d-23.3194864!4d-45.9273195!16s%2Fg%2F11thz45kd0!19sChIJn4jIDTrLzZQRb4J8b_cQcGI?authuser=0&hl=pt-BR&rclk=1,scraper_gmaps|quadra esportiva Jacareí - SP
5d7ad340f4be31c7,Quadra Vila Zezé,"· Av. das Indústrias, 760",-23.2944471,-45.9456746,,,,"4,0",6,Academia,,https://www.google.com/maps/place/Quadra+Vila+Zez%C3%A9/data=!4m7!3m6!1s0x94cdcb6a7b7b992f:0xf33014dd76ec3e6!8m2!3d-23.2944471!4d-45.9456746!16s%2Fg%2F11vkpqp4cc!19sChIJL5l7e2rLzZQR5sNu100BMw8?authuser=0&hl=pt-BR&rclk=1,scraper_gmaps|quadra esportiva Jacareí - SP
a249c48015cd33e4,Arena 10,"· Av. Sergio Prado, 181",-23.2968119,-45.9763382,,,,,,Campo de futebol,,https://www.google.com/maps/place/Arena+10/data=!4m7!3m6!1s0x94cdcb004421410b:0x9577f8b34c3af098!8m2!3d-23.2968119!4d-45.9763382!16s%2Fg%2F11yp4_9btz!19sChIJC0EhRADLzZQRmPA6TLP4d5U?authuser=0&hl=pt-BR&rclk=1,scraper_gmaps|quadra esportiva Jacareí - SP
78d6224e85995aad,Arena Cameron,,-23.2624565,-45.9306907,,,,"3,9",8,Campo de futebol,,https://www.google.com/maps/place/Arena+Cameron/data=!4m7!3m6!1s0x94cc3532135895b3:0x699533945c0e0a98!8m2!3d-23.2624565!4d-45.9306907!16s%2Fg%2F11fxb7k7hf!19sChIJs5VYEzI1zJQRmAoOXJQzlWk?authuser=0&hl=pt-BR&rclk=1,scraper_gmaps|quadra esportiva Jacareí - SP
78278fb2d05706fc,Campo de Futebol - Elvira,,-23.3019545,-45.9912969,,,,"4,6",23,Quadra de esportes,,https://www.google.com/maps/place/Campo+de+Futebol+-+Elvira/data=!4m7!3m6!1s0x94cdcd04f0672047:0xb746f17e251ffebc!8m2!3d-23.3019545!4d-45.9912969!16s%2Fg%2F11q2rvxk7b!19sChIJRyBn8ATNzZQRvP4fJX7xRrc?authuser=0&hl=pt-BR&rclk=1,scraper_gmaps|quadra esportiva Jacareí - SP
b517114689f82c8e,Quadra poliesportiva Primavera,· Av. Getúlio Dorneles Vargas,-23.2842541,-45.9523374,,,,,,Quadra de esportes,,https://www.google.com/maps/place/Quadra+poliesportiva+Primavera/data=!4m7!3m6!1s0x94cdcb0045f72845:0x8584818fd45b82aa!8m2!3d-23.2842541!4d-45.9523374!16s%2Fg%2F11w_s71qlk!19sChIJRSj3RQDLzZQRqoJb1I-BhIU?authuser=0&hl=pt-BR&rclk=1,scraper_gmaps|quadra esportiva Jacareí - SP
0d0b05c0a81f48a8,Arena Bryan Willian,,-23.3038759,-45.9412448,,,,"4,9",14,Parque,,https://www.google.com/maps/place/Arena+Bryan+Willian/data=!4m7!3m6!1s0x94cdcb264fed4f07:0x1c029b08bcfd2c3c!8m2!3d-23.3038759!4d-45.9412448!16s%2Fg%2F11rsfdycfn!19sChIJB0_tTybLzZQRPCz9vAibAhw?authuser=0&hl=pt-BR&rclk=1,scraper_gmaps|quadra esportiva Jacareí - SP
9687e12b293267a9,Arena Viking Santa Maria,"· Av. Roberto Lopes Leal, 234",-23.2902195,-45.9640749,,,,"5,0",12,Academia de artes marciais,,https://www.google.com/maps/place/Arena+Viking+Santa+Maria/data=!4m7!3m6!1s0x94cdcbacadf87c29:0x306f8902c38768a6!8m2!3d-23.2902195!4d-45.9640749!16s%2Fg%2F11zkmnqcxc!19sChIJKXz4razLzZQRpmiHwwKJbzA?authuser=0&hl=pt-BR&rclk=1,scraper_gmaps|quadra esportiva Jacareí - SP
8bbeef79bc8debe1,Quadra de Areia,,-23.3039852,-45.9360383,,,,,,Campo de futebol,,https://www.google.com/maps/place/Quadra+de+Areia/data=!4m7!3m6!1s0x94cdcb006ca4dda3:0xde67855053bc57f8!8m2!3d-23.3039852!4d-45.9360383!16s%2Fg%2F11m6300tsw!19sChIJo92kbADLzZQR-Fe8U1CFZ94?authuser=0&hl=pt-BR&rclk=1,scraper_gmaps|quadra esportiva Jacareí - SP
6c661c6d57235165,Ginásio Poliesportivo Sesi,,-23.3140858,-45.9895164,,,,"4,6",177,Ginásio poliesportivo,,https://www.google.com/maps/place/Gin%C3%A1sio+Poliesportivo+Sesi/data=!4m7!3m6!1s0x94cdcc8f871804c9:0xbb6950879b7b762f!8m2!3d-23.3140858!4d-45.9895164!16s%2Fg%2F1tgp1y2h!19sChIJyQQYh4_MzZQRL3Z7m4dQabs?authuser=0&hl=pt-BR&rclk=1,scraper_gmaps|quadra esportiva Jacareí - SP
c72329b45f9b8824,Quadra de Tênis do Parque da Cidade,,-23.3014671,-45.9656215,,,,"4,0",1,Quadra de tênis,,https://www.google.com/maps/place/Quadra+de+T%C3%AAnis+do+Parque+da+Cidade/data=!4m7!3m6!1s0x94cdcb0028c60f15:0x663e74091d94025c!8m2!3d-23.3014671!4d-45.9656215!16s%2Fg%2F11m6w79zqq!19sChIJFQ_GKADLzZQRXAKUHQl0PmY?authuser=0&hl=pt-BR&rclk=1,scraper_gmaps|quadra esportiva Jacareí - SP
4f9be795480a9375,GOAL Mais Jacareí,,-23.2997216,-45.958284,,,,,,Quadra de esportes,,https://www.google.com/maps/place/GOAL+Mais+Jacare%C3%AD/data=!4m7!3m6!1s0x94cdcb5f9a750187:0xa2afe4886e34cbd7!8m2!3d-23.2997216!4d-45.958284!16s%2Fg%2F11vz46nxvh!19sChIJhwF1ml_LzZQR18s0bojkr6I?authuser=0&hl=pt-BR&rclk=1,scraper_gmaps|quadra esportiva Jacareí - SP
4aa00b368714c4ff,Academia Arena Fitness Jacareí,"· Rua Chiquinha Schurig, 390",-23.3054816,-45.9787483,,,,"4,7",78,Academia,,https://www.google.com/maps/place/Academia+Arena+Fitness+Jacare%C3%AD/data=!4m7!3m6!1s0x94cdcb7eb6f61d8f:0xe21f1e451dc0649a!8m2!3d-23.3054816!4d-45.9787483!16s%2Fg%2F11f5tz8nrc!19sChIJjx32tn7LzZQRmmTAHUUeH-I?authuser=0&hl=pt-BR&rclk=1,scraper_gmaps|quadra esportiva Jacareí - SP
0abf9bfcd5f956ff,Arena Intervale,,-23.2582229,-45.922814,,,,"4,6",47,Escritório da empresa,,https://www.google.com/maps/place/Arena+Intervale/data=!4m7!3m6!1s0x94cc3535f7e361b5:0x7274e7bad8ae9510!8m2!3d-23.2582229!4d-45.922814!16s%2Fg%2F11dxb1_m7w!19sChIJtWHj9zU1zJQREJWu2LrndHI?authuser=0&hl=pt-BR&rclk=1,scraper_gmaps|quadra esportiva Jacareí - SP
45e4b9e9b1a49da1,Quadra de Vôlei do Parque da Cidade,"· Av. Engenheiro Davi Monteiro Lino, 489",-23.3011265,-45.9657031,,,,,,Quadra de vôlei,,https://www.google.com/maps/place/Quadra+de+V%C3%B4lei+do+Parque+da+Cidade/data=!4m7!3m6!1s0x94cdcb003aec69a5:0x5d17eb1b1b0f5ab9!8m2!3d-23.3011265!4d-45.9657031!16s%2Fg%2F11x83y85mq!19sChIJpWnsOgDLzZQRuVoPGxvrF10?authuser=0&hl=pt-BR&rclk=1,scraper_gmaps|quadra esportiva Jacareí - SP
c29e97a048501635,Quadra De Futsal,"· Av. Engenheiro Davi Monteiro Lino, 328-492",-23.3002543,-45.9646625,,,,"5,0",1,Quadra de futsal,,https://www.google.com/maps/place/Quadra+De+Futsal/data=!4m7!3m6!1s0x94cdcb6bf4c428f3:0x95a48b226c0fa8a2!8m2!3d-23.3002543!4d-45.9646625!16s%2Fg%2F11c523qr1m!19sChIJ8yjE9GvLzZQRoqgPbCKLpJU?authuser=0&hl=pt-BR&rclk=1,scraper_gmaps|quadra esportiva Jacareí - SP
5a56efb4de838640,EC PARQUE MEIA LUA,"· Av. dos Migrantes, 1769",-23.2664335,-45.965262,,,,"4,5",13,Campo de futebol,,https://www.google.com/maps/place/EC+PARQUE+MEIA+LUA/data=!4m7!3m6!1s0x94cc35dd08ebf9dd:0x7cb97b02763cd2c8!8m2!3d-23.2664335!4d-45.965262!16s%2Fg%2F11v5tgqdnd!19sChIJ3fnrCN01zJQRyNI8dgJ7uXw?authuser=0&hl=pt-BR&rclk=1,scraper_gmaps|quadra esportiva Jacareí - SP
f4ef2648ed87dbb7,Tênis Villa,"· Av. das Letras, 855",-23.2664711,-45.9415492,,,,"4,8",24,Quadra de tênis,,https://www.google.com/maps/place/T%C3%AAnis+Villa/data=!4m7!3m6!1s0x94cc35e76e26fca9:0xb38034a13d19cc30!8m2!3d-23.2664711!4d-45.9415492!16s%2Fg%2F11r99l6_x0!19sChIJqfwmbuc1zJQRMMwZPaE0gLM?authuser=0&hl=pt-BR&rclk=1,scraper_gmaps|quadra esportiva Jacareí - SP
895ca81d9307287c,CT Paintball Jacarei,,-23.3182912,-45.9699305,,,,"4,6",203,Centro de paintball,,https://www.google.com/maps/place/CT+Paintball+Jacarei/data=!4m7!3m6!1s0x94cdcb82e200ce19:0x86bc26acc1e8ff9e!8m2!3d-23.3182912!4d-45.9699305!16s%2Fg%2F11cjtgw94f!19sChIJGc4A4oLLzZQRnv_owawmvIY?authuser=0&hl=pt-BR&rclk=1,scraper_gmaps|quadra esportiva Jacareí - SP
4bc4718f5d160972,Campo Santa Rita,,-23.3217001,-45.9636285,,,,"4,4",26,Campo de futebol,,https://www.google.com/maps/place/Campo+Santa+Rita/data=!4m7!3m6!1s0x94cdcb06c49da061:0x5b846beeccf3d66f!8m2!3d-23.3217001!4d-45.9636285!16s%2Fg%2F11q939qr0q!19sChIJYaCdxAbLzZQRb9bzzO5rhFs?authuser=0&hl=pt-BR&rclk=1,scraper_gmaps|quadra esportiva Jacareí - SP
2e362f7512ee33a4,Campo do Jardim do Vale,"· Av. Jurandir Fonsi, 107",-23.3271951,-45.970558,,,,"3,4",15,Campo de futebol,,https://www.google.com/maps/place/Campo+do+Jardim+do+Vale/data=!4m7!3m6!1s0x94cdcbf03f46dffb:0xc0101a62ae9a4039!8m2!3d-23.3271951!4d-45.970558!16s%2Fg%2F11rzrxc1hw!19sChIJ-99GP_DLzZQROUCarmIaEMA?authuser=0&hl=pt-BR&rclk=1,scraper_gmaps|quadra esportiva Jacareí - SP
3d5d946c0b274233,ARENA COOPER REAL22 CAMPO DO 22,,-23.2691929,-46.0709947,,,,"3,7",23,Campo de futebol,,https://www.google.com/maps/place/ARENA+COOPER+REAL22+CAMPO+DO+22/data=!4m7!3m6!1s0x94cc2d2f4a7c5707:0x8481d9f73257dfdd!8m2!3d-23.2691929!4d-46.0709947!16s%2Fg%2F11qhlr4xh_!19sChIJB1d8Si8tzJQR3d9XMvfZgYQ?authuser=0&hl=pt-BR&rclk=1,scraper_gmaps|quadra esportiva Jacareí - SP
a129c54ab1ce90a8,Centro Esportivo Palmeiras de São José,,-23.2373136,-45.9132893,,,,"4,6",210,Quadra de esportes,,https://www.google.com/maps/place/Centro+Esportivo+Palmeiras+de+S%C3%A3o+Jos%C3%A9/data=!4m7!3m6!1s0x94cc35688174a9bd:0xcc4e716368074be!8m2!3d-23.2373136!4d-45.9132893!16s%2Fg%2F11clytpn_5!19sChIJval0gWg1zJQRvnSANhbnxAw?authuser=0&hl=pt-BR&rclk=1,scraper_gmaps|quadra esportiva Jacareí - SP
5a81939975a1bf39,Academia Arena Coliseum,,-23.2643543,-45.9273283,,,,"4,5",93,Academia,,https://www.google.com/maps/place/Academia+Arena+Coliseum/data=!4m7!3m6!1s0x94cdcacb5bab949d:0x3647128816ec36c1!8m2!3d-23.2643543!4d-45.9273283!16s%2Fg%2F11bxfk7b_r!19sChIJnZSrW8vKzZQRwTbsFogSRzY?authuser=0&hl=pt-BR&rclk=1,scraper_gmaps|quadra esportiva Jacareí - SP
0e4a1ab773e5bf58,Arena Sul Sports,,-23.2513669,-45.8921909,,,,"4,5",678,Quadra de esportes,,https://www.google.com/maps/place/Arena+Sul+Sports/data=!4m7!3m6!1s0x94cc4ab32a7f6091:0xf73e48fd7a3102fb!8m2!3d-23.2513669!4d-45.8921909!16s%2Fg%2F11g8z__2l8!19sChIJkWB_KrNKzJQR-wIxev1IPvc?authuser=0&hl=pt-BR&rclk=1,scraper_gmaps|quadra esportiva Jacareí - SP
5d5a9daae687dfae,Arena MUV - Ação e Movimento,"· Av. Lucas Nogueira Garcês, 260",-23.3105269,-45.9983069,,,,"4,4",67,Academia,,https://www.google.com/maps/place/Arena+MUV+-+A%C3%A7%C3%A3o+e+Movimento/data=!4m7!3m6!1s0x94cdcd1445d041d5:0xe31833d209a24ba6!8m2!3d-23.3105269!4d-45.9983069!16s%2Fg%2F11x1yr_1hy!19sChIJ1UHQRRTNzZQRpkuiCdIzGOM?authuser=0&hl=pt-BR&rclk=1,scraper_gmaps|quadra esportiva Jacareí - SP
748f5294a8d4df8e,Varjão do IGARAPÉS,,-23.297075,-46.0361959,,,,"5,0",1,Campo de futebol,,https://www.google.com/maps/place/Varj%C3%A3o+do+IGARAP%C3%89S/data=!4m7!3m6!1s0x94cc33bc247d110d:0xef303c93229e7711!8m2!3d-23.297075!4d-46.0361959!16s%2Fg%2F11v9_ydnbc!19sChIJDRF9JLwzzJQREXeeIpM8MO8?authuser=0&hl=pt-BR&rclk=1,scraper_gmaps|quadra esportiva Jacareí - SP
92e143d6dacfa53c,Arenaekocross,,-23.3004621,-45.9583967,,,,"5,0",81,Academia,,https://www.google.com/maps/place/Arenaekocross/data=!4m7!3m6!1s0x94cdcb1252f0f4b7:0x4c4c82c4dfabe0a0!8m2!3d-23.3004621!4d-45.9583967!16s%2Fg%2F11ggvybcch!19sChIJt_TwUhLLzZQRoOCr38SCTEw?authuser=0&hl=pt-BR&rclk=1,scraper_gmaps|quadra esportiva Jacareí - SP
9fce8c3e93c2e0d6,Society do Parque Brasil,,-23.2909324,-45.9580785,,,,,,Campo de futebol,,https://www.google.com/maps/place/Society+do+Parque+Brasil/data=!4m7!3m6!1s0x94cdcb004e1ffab9:0x8dafbf7b047fbf2f!8m2!3d-23.2909324!4d-45.9580785!16s%2Fg%2F11x83_36vn!19sChIJufofTgDLzZQRL79_BHu_r40?authuser=0&hl=pt-BR&rclk=1,scraper_gmaps|quadra esportiva Jacareí - SP|futebol society Jacareí - SP
160331ce25215511,Campo do CECAP,"· Av. Paulo Setúbal, 685",-23.2923017,-45.9391239,,,,"4,8",6,Campo de futebol,,https://www.google.com/maps/place/Campo+do+CECAP/data=!4m7!3m6!1s0x94cdcb0069c3951f:0x9de3371b853e06c6!8m2!3d-23.2923017!4d-45.9391239!16s%2Fg%2F11x7h7gy8z!19sChIJH5XDaQDLzZQRxgY-hRs3450?authuser=0&hl=pt-BR&rclk=1,scraper_gmaps|quadra esportiva Jacareí - SP
f23bd8efb1c8d768,"Campo do Santa Marina, Jacareí",,-23.2958446,-45.9292178,,,,"3,8",37,Campo de futebol,,"https://www.google.com/maps/place/Campo+do+Santa+Marina,+Jacare%C3%AD/data=!4m7!3m6!1s0x94cdcbb9080dbccd:0x402d67eddaf97ced!8m2!3d-23.2958446!4d-45.9292178!16s%2Fg%2F11f7h3btlj!19sChIJzbwNCLnLzZQR7Xz52u1nLUA?authuser=0&hl=pt-BR&rclk=1",scraper_gmaps|quadra esportiva Jacareí - SP
9c5aef11e5302ba0,Campo de Futebol - Residencial Vista das Araucárias,,-23.3264614,-45.9262241,,,,"3,3",3,Quadra de esportes,,https://www.google.com/maps/place/Campo+de+Futebol+-+Residencial+Vista+das+Arauc%C3%A1rias/data=!4m7!3m6!1s0x94cdcb431f338407:0x55868e3bdd7cbd14!8m2!3d-23.3264614!4d-45.9262241!16s%2Fg%2F11s9sc8gbg!19sChIJB4QzH0PLzZQRFL183TuOhlU?authuser=0&hl=pt-BR&rclk=1,scraper_gmaps|quadra esportiva Jacareí - SP
0810688010e0e0dd,Associação Malha Primavera,· Centro Comunitário do Jardim Primavera - Jardim Primavera,-23.2839258,-45.9520437,,,,,,Quadra de esportes,,https://www.google.com/maps/place/Associa%C3%A7%C3%A3o+Malha+Primavera/data=!4m7!3m6!1s0x94cdcb00341650c9:0x4ef21859122d6f24!8m2!3d-23.2839258!4d-45.9520437!16s%2Fg%2F11nq1lh_sg!19sChIJyVAWNADLzZQRJG8tElkY8k4?authuser=0&hl=pt-BR&rclk=1,scraper_gmaps|quadra esportiva Jacareí - SP
1921f7725a402725,Praça Mauro Chaves,,-23.2905097,-45.9507659,,,,"4,5",21,Quadra de esportes,,https://www.google.com/maps/place/Pra%C3%A7a+Mauro+Chaves/data=!4m7!3m6!1s0x94cdcb1809dba01f:0x2ba193c890e4df95!8m2!3d-23.2905097!4d-45.9507659!16s%2Fg%2F11dfjblr78!19sChIJH6DbCRjLzZQRld_kkMiToSs?authuser=0&hl=pt-BR&rclk=1,scraper_gmaps|quadra esportiva Jacareí - SP
d85f40226673a91d,Campo de Futebol,,-23.3279987,-45.9951984,,,,"5,0",3,Campo de futebol,,https://www.google.com/maps/place/Campo+de+Futebol/data=!4m7!3m6!1s0x94cdcdd39cd6b26f:0xaf31cf98d2e118aa!8m2!3d-23.3279987!4d-45.9951984!16s%2Fg%2F11r9bvpcfr!19sChIJb7LWnNPNzZQRqhjh0pjPMa8?authuser=0&hl=pt-BR&rclk=1,scraper_gmaps|quadra esportiva Jacareí - SP
fcaa6cba643df930,Campinho de Futebol Paulistano,,-23.3112138,-45.987314,,,,"2,5",2,Campo de futebol,,https://www.google.com/maps/place/Campinho+de+Futebol+Paulistano/data=!4m7!3m6!1s0x94cdcd006ea79719:0xea363bd4f66c3062!8m2!3d-23.3112138!4d-45.987314!16s%2Fg%2F11w4cxbp4c!19sChIJGZenbgDNzZQRYjBs9tQ7Nuo?authuser=0&hl=pt-BR&rclk=1,scraper_gmaps|quadra esportiva Jacareí - SP
7993152f52f5bd36,Educamais Jardim Paraíso,"· Rua Expedicionário, R. Lourenço Nogueira, 211",-23.3167018,-45.9396166,,,,"4,5",61,Quadra de esportes,,https://www.google.com/maps/place/Educamais+Jardim+Para%C3%ADso/data=!4m7!3m6!1s0x94cdca4d0b1e01f9:0x367fa49610927583!8m2!3d-23.3167018!4d-45.9396166!16s%2Fg%2F12hkmlpkl!19sChIJ-QEeC03KzZQRg3WSEJakfzY?authuser=0&hl=pt-BR&rclk=1,scraper_gmaps|quadra esportiva Jacareí - SP
4e903b49d84f8914,SET POINT TENNIS PLAY MACHINE,"· Av. Edmundo de Souza, 15",-23.3162114,-45.9842152,,,,"5,0",11,Quadra de tênis,,https://www.google.com/maps/place/SET+POINT+TENNIS+PLAY+MACHINE/data=!4m7!3m6!1s0x94ce7b1f22a40001:0xd92430cc4ddf54ba!8m2!3d-23.3162114!4d-45.9842152!16s%2Fg%2F11trqxpjg_!19sChIJAQCkIh97zpQRulTfTcwwJNk?authuser=0&hl=pt-BR&rclk=1,scraper_gmaps|quadra esportiva Jacareí - SP
0d69d92d01829399,BFC ACADEMY JAC,"· Av. Nove de Julho, 745",-23.2965504,-45.9685906,,,,"5,0",2,Campo de futebol,,https://www.google.com/maps/place/BFC+ACADEMY+JAC/data=!4m7!3m6!1s0x94cdcb004f2fc3b1:0x3129e4e3d7852e37!8m2!3d-23.2965504!4d-45.9685906!16s%2Fg%2F11m5qtcdws!19sChIJscMvTwDLzZQRNy6F1-PkKTE?authuser=0&hl=pt-BR&rclk=1,scraper_gmaps|quadra esportiva Jacareí - SP
c958430732702b40,Campo Jd. Colônia,,-23.3234396,-45.9212436,,,,"5,0",5,Campo de futebol,,https://www.google.com/maps/place/Campo+Jd.+Col%C3%B4nia/data=!4m7!3m6!1s0x94cdcba8262a6a43:0x9218faa0682ade9a!8m2!3d-23.3234396!4d-45.9212436!16s%2Fg%2F11v5t4476z!19sChIJQ2oqJqjLzZQRmt4qaKD6GJI?authuser=0&hl=pt-BR&rclk=1,scraper_gmaps|quadra esportiva Jacareí - SP
af3c78d1a65567bb,Campo do Santo Antônio boa vista,"· Av. Rômulo Rossi, 603",-23.319071,-45.927226,,,,"4,1",11,Campo de futebol,,https://www.google.com/maps/place/Campo+do+Santo+Ant%C3%B4nio+boa+vista/data=!4m7!3m6!1s0x94cdcbcc6b37a04d:0x122a71a64a18725a!8m2!3d-23.319071!4d-45.927226!16s%2Fg%2F11m8jwdvl9!19sChIJTaA3a8zLzZQRWnIYSqZxKhI?authuser=0&hl=pt-BR&rclk=1,scraper_gmaps|quadra esportiva Jacareí - SP
4584be669e364a7c,Arena Parque Society,,-23.2381629,-45.9107322,,,,"4,7",341,Campo de futebol,,https://www.google.com/maps/place/Arena+Parque+Society/data=!4m7!3m6!1s0x94cc35deed2595c5:0x17be51d67b83cf31!8m2!3d-23.2381629!4d-45.9107322!16s%2Fg%2F11fln8c2zm!19sChIJxZUl7d41zJQRMc-De9ZRvhc?authuser=0&hl=pt-BR&rclk=1,scraper_gmaps|quadra esportiva Jacareí - SP
9fbc5acee1ed7ae3,Campinho Édis Rigo,,-23.3334697,-46.0002215,,,,,,Campo de futebol,,https://www.google.com/maps/place/Campinho+%C3%89dis+Rigo/data=!4m7!3m6!1s0x94cdcd21367b14df:0xd7e41a0765863ca9!8m2!3d-23.3334697!4d-46.0002215!16s%2Fg%2F11s95q7gcs!19sChIJ3xR7NiHNzZQRqTyGZQca5Nc?authuser=0&hl=pt-BR&rclk=1,scraper_gmaps|quadra esportiva Jacareí - SP
f07f062d94196f21,SESI Jacareí,,-23.3152114,-45.9886809,,,,"4,9",63,Escola de educação para adultos,,https://www.google.com/maps/place/SESI+Jacare%C3%AD/data=!4m7!3m6!1s0x94cdcc8547ed9b23:0x690505f38ccc2cc1!8m2!3d-23.3152114!4d-45.9886809!16s%2Fg%2F11byhnbh8t!19sChIJI5vtR4XMzZQRwSzMjPMFBWk?authuser=0&hl=pt-BR&rclk=1,scraper_gmaps|SESI Jacareí - SP|SESC Jacareí - SP
ca3a8e56910b6955,SEST SENAT Jacareí SP,"· Avenida Pres. Humberto Castelo Branco, 3201",-23.2821232,-45.9802857,,,,"4,5",444,Centro de treinamento,,https://www.google.com/maps/place/SEST+SENAT+Jacare%C3%AD+SP/data=!4m7!3m6!1s0x94cc34aaac93be99:0x9856f26fd9b1d56!8m2!3d-23.2821232!4d-45.9802857!16s%2Fg%2F11bwp28092!19sChIJmb6TrKo0zJQRVh2b_SZvhQk?authuser=0&hl=pt-BR&rclk=1,scraper_gmaps|SESC Jacareí - SP
fc9f39146c6f5a85,Sesc São José dos Campos,"· Av. Dr. Ademar de Barros, 999",-23.2010009,-45.8924521,,,,"4,8",5515,Organização de serviço social,,https://www.google.com/maps/place/Sesc+S%C3%A3o+Jos%C3%A9+dos+Campos/data=!4m7!3m6!1s0x94cc4a181d37a7f9:0xaefd4097292cba65!8m2!3d-23.2010009!4d-45.8924521!16s%2Fg%2F1tl1pkfy!19sChIJ-ac3HRhKzJQRZbosKZdA_a4?authuser=0&hl=pt-BR&rclk=1,scraper_gmaps|SESC Jacareí - SP
77cee17c4294b3be,Escola de Futebol,"· Av. Ademar Pereira de Barros, 1462",-23.2820466,-45.9550902,,,,"5,0",2,Escola de esportes,,https://www.google.com/maps/place/Escola+de+Futebol/data=!4m7!3m6!1s0x94cdcb309e0e6c35:0xa154cd1e5f90f844!8m2!3d-23.2820466!4d-45.9550902!16s%2Fg%2F11j98ljflb!19sChIJNWwOnjDLzZQRRPiQXx7NVKE?authuser=0&hl=pt-BR&rclk=1,scraper_gmaps|escolinha de futebol Jacareí - SP
c46f1e4a1b22162d,Bulls FC - Escola de Futebol JAC,· Av. Nove de Julho,-23.2972964,-45.9685274,,,,"5,0",2,Treino de futebol,,https://www.google.com/maps/place/Bulls+FC+-+Escola+de+Futebol+JAC/data=!4m7!3m6!1s0x94cdcbaa6f201c63:0xe208ed792285148d!8m2!3d-23.2972964!4d-45.9685274!16s%2Fg%2F11w4gzy1hd!19sChIJYxwgb6rLzZQRjRSFInntCOI?authuser=0&hl=pt-BR&rclk=1,scraper_gmaps|escolinha de futebol Jacareí - SP
479914b69bcdd399,Escolinha De Futebol F.c Águia De Ouro Sede,"· Av. Suzana de Castro Ramos, 341",-23.3224353,-45.9733778,,,,,,Clube de futebol,,https://www.google.com/maps/place/Escolinha+De+Futebol+F.c+%C3%81guia+De+Ouro+Sede/data=!4m7!3m6!1s0x94cdcb83877e2427:0xf8c7def905294835!8m2!3d-23.3224353!4d-45.9733778!16s%2Fg%2F11kn6x34gc!19sChIJJyR-h4PLzZQRNUgpBfnex_g?authuser=0&hl=pt-BR&rclk=1,scraper_gmaps|escolinha de futebol Jacareí - SP
6c72e5b4487e13a0,Escolinha De futebol,,-23.3368508,-46.0015593,,,,"4,2",6,Treino de futebol,,https://www.google.com/maps/place/Escolinha+De+futebol/data=!4m7!3m6!1s0x94cdcc5cd592e739:0x92099bcb8306dce6!8m2!3d-23.3368508!4d-46.0015593!16s%2Fg%2F11c2nrcn6y!19sChIJOeeS1VzMzZQR5twGg8ubCZI?authuser=0&hl=pt-BR&rclk=1,scraper_gmaps|escolinha de futebol Jacareí - SP
3127993c72ce024d,Acquario Natação & Fitness,"· Av. Tarsila do Amaral, 370",-23.2627935,-45.9406036,,,,"4,6",213,Escola de natação,,https://www.google.com/maps/place/Acquario+Nata%C3%A7%C3%A3o+%26+Fitness/data=!4m7!3m6!1s0x94cc35bc0703b58d:0x35e01f316e0dd9fe!8m2!3d-23.2627935!4d-45.9406036!16s%2Fg%2F11j0zq7rh8!19sChIJjbUDB7w1zJQR_tkNbjEf4DU?authuser=0&hl=pt-BR&rclk=1,scraper_gmaps|escolinha de natação Jacareí - SP|escola de natação Jacareí - SP|academia de natação Jacareí - SP
8ab96ea6d1f4ec9c,Eko Aquática & Bootcamp - Escola de natação em Jacareí (Jardim Califórnia),"· Rod. Geraldo Scavone, 1240",-23.2815389,-45.9458049,,,,"4,7",91,Escola de natação,,https://www.google.com/maps/place/Eko+Aqu%C3%A1tica+%26+Bootcamp+-+Escola+de+nata%C3%A7%C3%A3o+em+Jacare%C3%AD+%28Jardim+Calif%C3%B3rnia%29/data=!4m7!3m6!1s0x94cdcb8f090584ff:0x50fd89391e22f1b3!8m2!3d-23.2815389!4d-45.9458049!16s%2Fg%2F11l1krdcsd!19sChIJ_4QFCY_LzZQRs_EiHjmJ_VA?authuser=0&hl=pt-BR&rclk=1,scraper_gmaps|escolinha de natação Jacareí - SP|escola de natação Jacareí - SP|academia de natação Jacareí - SP
b4b68dc526265baf,Academia Tchibum,,-23.3072068,-45.9801136,,,,"4,4",215,Academia,,https://www.google.com/maps/place/Academia+Tchibum/data=!4m7!3m6!1s0x94cdcb6275fa2499:0xc1e9bdd5d3493285!8m2!3d-23.3072068!4d-45.9801136!16s%2Fg%2F11cjp85f86!19sChIJmST6dWLLzZQRhTJJ09W96cE?authuser=0&hl=pt-BR&rclk=1,scraper_gmaps|escolinha de natação Jacareí - SP|escola de natação Jacareí - SP|academia de natação Jacareí - SP
dc0d45f12573f41b,Aquatic Nataçao e Hidroginastica,"· Av. Mississipi, 331",-23.3012088,-45.978958,,,,"4,7",172,Academia,,https://www.google.com/maps/place/Aquatic+Nata%C3%A7ao+e+Hidroginastica/data=!4m7!3m6!1s0x94cdcb60720346b3:0x555bceaa45805d8d!8m2!3d-23.3012088!4d-45.978958!16s%2Fg%2F11c3w014m3!19sChIJs0YDcmDLzZQRjV2ARarOW1U?authuser=0&hl=pt-BR&rclk=1,scraper_gmaps|escolinha de natação Jacareí - SP|escola de natação Jacareí - SP|academia de natação Jacareí - SP
27bb918c15edc8da,Academia Acqua Brothers,,-23.2986522,-45.9829709,,,,"4,7",102,Academia,,https://www.google.com/maps/place/Academia+Acqua+Brothers/data=!4m7!3m6!1s0x94cdcd51f116bf6b:0x1ee66fa7622a228a!8m2!3d-23.2986522!4d-45.9829709!16s%2Fg%2F11f60z2qhw!19sChIJa78W8VHNzZQRiiIqYqdv5h4?authuser=0&hl=pt-BR&rclk=1,scraper_gmaps|escolinha de natação Jacareí - SP|escola de natação Jacareí - SP|academia de natação Jacareí - SP
ca368fd43a50a452,Villa Academia - Villa Branca,"· Av. Marginal José Cândido Pôrto, 885",-23.2720235,-45.9352956,,,,"4,7",198,Academia,,https://www.google.com/maps/place/Villa+Academia+-+Villa+Branca/data=!4m7!3m6!1s0x94cdcad173fd0a27:0x16d203f2a5ac250b!8m2!3d-23.2720235!4d-45.9352956!16s%2Fg%2F11b73pf94c!19sChIJJwr9c9HKzZQRCyWspfID0hY?authuser=0&hl=pt-BR&rclk=1,scraper_gmaps|escolinha de natação Jacareí - SP|academia de natação Jacareí - SP
cb7a88b0e9798b7c,Academia Qualidade e Vida,"· Av. Dom Pedro I, 240 - 4",-23.2984591,-45.9411252,,,,"4,8",55,Academia,,https://www.google.com/maps/place/Academia+Qualidade+e+Vida/data=!4m7!3m6!1s0x94cdcbb713dbc85f:0x36a6be66345de0ed!8m2!3d-23.2984591!4d-45.9411252!16s%2Fg%2F11g0tpjr16!19sChIJX8jbE7fLzZQR7eBdNGa-pjY?authuser=0&hl=pt-BR&rclk=1,scraper_gmaps|natação Jacareí - SP|academia de natação Jacareí - SP
3c93342868366797,Up Vida - Centro Integrado de saúde e movimento,"· Av. das Linhas, 354",-23.2653324,-45.9378193,,,,"4,8",26,Academia,,https://www.google.com/maps/place/Up+Vida+-+Centro+Integrado+de+sa%C3%BAde+e+movimento/data=!4m7!3m6!1s0x94cdcbcb7735604b:0xb49484dddb55bc5a!8m2!3d-23.2653324!4d-45.9378193!16s%2Fg%2F11y4n8bgcm!19sChIJS2A1d8vLzZQRWrxV292ElLQ?authuser=0&hl=pt-BR&rclk=1,scraper_gmaps|natação Jacareí - SP
2407b3cf9b67ec45,Academia Jardim Colonia Impetus Fitness,,-23.3171191,-45.9214448,,,,"5,0",11,Academia,,https://www.google.com/maps/place/Academia+Jardim+Colonia+Impetus+Fitness/data=!4m7!3m6!1s0x94cdcb3c1c559c37:0x5a7be53ffe0d77a2!8m2!3d-23.3171191!4d-45.9214448!16s%2Fg%2F11vplw5n8z!19sChIJN5xVHDzLzZQRoncN_j_le1o?authuser=0&hl=pt-BR&rclk=1,scraper_gmaps|natação Jacareí - SP
847695338058246a,Allp Fit Academia Jacareí,,-23.302508,-45.9611886,,,,"4,6",24,Academia,,https://www.google.com/maps/place/Allp+Fit+Academia+Jacare%C3%AD/data=!4m7!3m6!1s0x94cdcb92e20ef9db:0xc48e74ef28c28937!8m2!3d-23.302508!4d-45.9611886!16s%2Fg%2F11z1glll2d!19sChIJ2_kO4pLLzZQRN4nCKO90jsQ?authuser=0&hl=pt-BR&rclk=1,scraper_gmaps|academia de natação Jacareí - SP
6854fad3283eb9fb,Academia CompassFit CT - Centro Jacareí,,-23.3033684,-45.9618992,,,,"4,6",469,Academia,,https://www.google.com/maps/place/Academia+CompassFit+CT+-+Centro+Jacare%C3%AD/data=!4m7!3m6!1s0x94cdcb89dc6026bb:0xad891a59ed6e9f82!8m2!3d-23.3033684!4d-45.9618992!16s%2Fg%2F11gyc2wn7c!19sChIJuyZg3InLzZQRgp9u7Vkaia0?authuser=0&hl=pt-BR&rclk=1,scraper_gmaps|academia de natação Jacareí - SP
5d29fbc2ab4588a5,Escola Municipal Barão de Jacareí,,-23.3094236,-45.9777387,,,,,,Escola pública,,https://www.google.com/maps/place/Escola+Municipal+Bar%C3%A3o+de+Jacare%C3%AD/data=!4m7!3m6!1s0x94cdcb62d61b4ca7:0xcba402ee4b6ef0ad!8m2!3d-23.3094236!4d-45.9777387!16s%2Fg%2F11c4kg7nd0!19sChIJp0wb1mLLzZQRrfBuS-4CpMs?authuser=0&hl=pt-BR&rclk=1,scraper_gmaps|escola municipal Jacareí - SP
a440ebb1e7e0096a,Escola Municipal de Educação Infantil Jardim Florida,,-23.299918,-45.9836982,,,,"4,9",8,Jardim de infância,,https://www.google.com/maps/place/Escola+Municipal+de+Educa%C3%A7%C3%A3o+Infantil+Jardim+Florida/data=!4m7!3m6!1s0x94cdcca1164ae187:0xf5cfa4447c913a26!8m2!3d-23.299918!4d-45.9836982!16s%2Fg%2F1th6fz6d!19sChIJh-FKFqHMzZQRJjqRfESkz_U?authuser=0&hl=pt-BR&rclk=1,scraper_gmaps|escola municipal Jacareí - SP
c08374d50de4ca37,Escola Municipal de Ensino Fundamental Professora Delly Gaspar dos Santos,"· Av. Papa João XXIII, 95",-23.294413,-45.9443508,,,,,,Escola de ensino fundamental,,https://www.google.com/maps/place/Escola+Municipal+de+Ensino+Fundamental+Professora+Delly+Gaspar+dos+Santos/data=!4m7!3m6!1s0x94cdcb1db3260511:0xc0daa36de31ff46c!8m2!3d-23.294413!4d-45.9443508!16s%2Fg%2F1vfwdzq7!19sChIJEQUmsx3LzZQRbPQf422j2sA?authuser=0&hl=pt-BR&rclk=1,scraper_gmaps|escola municipal Jacareí - SP
130f6c32655acd32,Escola Municipal de Educação Infantil Maria José de Carvalho Ferreira,"· R. Orual Salvador, 543",-23.2893257,-45.9607238,,,,"4,7",19,Jardim de infância,,https://www.google.com/maps/place/Escola+Municipal+de+Educa%C3%A7%C3%A3o+Infantil+Maria+Jos%C3%A9+de+Carvalho+Ferreira/data=!4m7!3m6!1s0x94cdcb3f559dfb75:0x95749ce68a046bf5!8m2!3d-23.2893257!4d-45.9607238!16s%2Fg%2F1thbxsmc!19sChIJdfudVT_LzZQR9WsEiuacdJU?authuser=0&hl=pt-BR&rclk=1,scraper_gmaps|escola municipal Jacareí - SP
66408ac3dd4b9214,EMEF Prof Sílvio Silveira Mello Filho,,-23.2893322,-45.9612783,,,,,,Escola pública,,https://www.google.com/maps/place/EMEF+Prof+S%C3%ADlvio+Silveira+Mello+Filho/data=!4m7!3m6!1s0x94cdcb474d8f1b1d:0xfbc318feb89606e7!8m2!3d-23.2893322!4d-45.9612783!16s%2Fg%2F1tfn3vzs!19sChIJHRuPTUfLzZQR5waWuP4Yw_s?authuser=0&hl=pt-BR&rclk=1,scraper_gmaps|escola municipal Jacareí - SP
26c653ef7f935049,Escola Municipal Lamartine Delamare,,-23.3082233,-45.9720942,,,,,,Escola de educação geral,,https://www.google.com/maps/place/Escola+Municipal+Lamartine+Delamare/data=!4m7!3m6!1s0x94cdcb7ada91df95:0x3501696b6b2ffa65!8m2!3d-23.3082233!4d-45.9720942!16s%2Fg%2F1tn02bpg!19sChIJld-R2nrLzZQRZfova2tpATU?authuser=0&hl=pt-BR&rclk=1,scraper_gmaps|escola municipal Jacareí - SP
dee88c681a8d4e84,Prof. Aluizio do Amaral Campos - Escola Municipal de Ensino Fundamental,,-23.3276994,-45.9961137,,,,,,Escola de ensino fundamental,,https://www.google.com/maps/place/Prof.+Aluizio+do+Amaral+Campos+-+Escola+Municipal+de+Ensino+Fundamental/data=!4m7!3m6!1s0x94cdcc6103ba55f3:0xebaaa46d5fcb5ad7!8m2!3d-23.3276994!4d-45.9961137!16s%2Fg%2F1tdm4vmb!19sChIJ81W6A2HMzZQR11rLX22kqus?authuser=0&hl=pt-BR&rclk=1,scraper_gmaps|escola municipal Jacareí - SP
8622f1fe2123667a,Escola Municipal Maria Luiza de Souza Pinto Vasques,,-23.2619788,-45.9267973,,,,,,Escola de educação geral,,https://www.google.com/maps/place/Escola+Municipal+Maria+Luiza+de+Souza+Pinto+Vasques/data=!4m7!3m6!1s0x94cc353490eb093f:0x50ee1cb16fd54476!8m2!3d-23.2619788!4d-45.9267973!16s%2Fg%2F1tf5fwc6!19sChIJPwnrkDQ1zJQRdkTVb7Ec7lA?authuser=0&hl=pt-BR&rclk=1,scraper_gmaps|escola municipal Jacareí - SP
5ba8004edd31e19a,Escola Municipal Joaquim Passos e Silva,,-23.3027082,-45.9329104,,,,,,Escola pública,,https://www.google.com/maps/place/Escola+Municipal+Joaquim+Passos+e+Silva/data=!4m7!3m6!1s0x94cdcaf81cadf491:0xe709c7761998bf60!8m2!3d-23.3027082!4d-45.9329104!16s%2Fg%2F1tkr0cyn!19sChIJkfStHPjKzZQRYL-YGXbHCec?authuser=0&hl=pt-BR&rclk=1,scraper_gmaps|escola municipal Jacareí - SP
4645094dc28fa97a,Escola Municipal Maria Amélia Mercadante Turci,,-23.3127798,-45.9573097,,,,,,Escola de educação geral,,https://www.google.com/maps/place/Escola+Municipal+Maria+Am%C3%A9lia+Mercadante+Turci/data=!4m7!3m6!1s0x94cdcba0bcfc03a5:0xb954149e89786d3c!8m2!3d-23.3127798!4d-45.9573097!16s%2Fg%2F1thzq001!19sChIJpQP8vKDLzZQRPG14iZ4UVLk?authuser=0&hl=pt-BR&rclk=1,scraper_gmaps|escola municipal Jacareí - SP
c44d26ff2f37aa89,Escola Municipal Márcio Aparecido de Moraes ES,,-23.3096425,-46.0071693,,,,,,Escola de ensino fundamental,,https://www.google.com/maps/place/Escola+Municipal+M%C3%A1rcio+Aparecido+de+Moraes+ES/data=!4m7!3m6!1s0x94cdccc2c3e4770b:0x7a058049d1411a5d!8m2!3d-23.3096425!4d-46.0071693!16s%2Fg%2F1v16rdxm!19sChIJC3fkw8LMzZQRXRpB0UmABXo?authuser=0&hl=pt-BR&rclk=1,scraper_gmaps|escola municipal Jacareí - SP
a23a60845be8e9b9,Escola Municipal De Educacao Infantil Professora Guaraci Da Rocha Simplicio,,-23.2712538,-45.9453244,,,,"3,8",5,Pré-escola,,https://www.google.com/maps/place/Escola+Municipal+De+Educacao+Infantil+Professora+Guaraci+Da+Rocha+Simplicio/data=!4m7!3m6!1s0x94cdcbbdeb68a66b:0x8851baf84712a677!8m2!3d-23.2712538!4d-45.9453244!16s%2Fg%2F11t0r_g07_!19sChIJa6Zo673LzZQRd6YSR_i6UYg?authuser=0&hl=pt-BR&rclk=1,scraper_gmaps|escola municipal Jacareí - SP
8e0abe9ff57e6ee1,Escola Municipal Decio Moreira,,-23.2718695,-45.9458651,,,,,,Escola de educação geral,,https://www.google.com/maps/place/Escola+Municipal+Decio+Moreira/data=!4m7!3m6!1s0x94cdcb2c530543c3:0xe009bc8f5f20e136!8m2!3d-23.2718695!4d-45.9458651!16s%2Fg%2F1tdryfd4!19sChIJw0MFUyzLzZQRNuEgX4-8CeA?authuser=0&hl=pt-BR&rclk=1,scraper_gmaps|escola municipal Jacareí - SP
a68ec664249c2a84,Escola Municipal Ensino Infantil Jardim Paraíso,,-23.3186352,-45.9376914,,,,,,Escola pública,,https://www.google.com/maps/place/Escola+Municipal+Ensino+Infantil+Jardim+Para%C3%ADso/data=!4m7!3m6!1s0x94cdca496af27603:0x509d8374ced9d711!8m2!3d-23.3186352!4d-45.9376914!16s%2Fg%2F1wd3x4s2!19sChIJA3byaknKzZQREdfZznSDnVA?authuser=0&hl=pt-BR&rclk=1,scraper_gmaps|escola municipal Jacareí - SP
b7130a0e84c927d9,Escola Municipal de Ensino Fundamental Profa Maria Tereza Ganassali de Oliveira,,-23.3181957,-45.9245003,,,,,,Escola pública,,https://www.google.com/maps/place/Escola+Municipal+de+Ensino+Fundamental+Profa+Maria+Tereza+Ganassali+de+Oliveira/data=!4m7!3m6!1s0x94cdca40768cf66d:0x8f89ad188539a51b!8m2!3d-23.3181957!4d-45.9245003!16s%2Fg%2F1tdryfd2!19sChIJbfaMdkDKzZQRG6U5hRitiY8?authuser=0&hl=pt-BR&rclk=1,scraper_gmaps|escola municipal Jacareí - SP
128894175479c296,Escola Municipal Celia Guedes,,-23.2813756,-45.9498069,,,,,,Escola de educação geral,,https://www.google.com/maps/place/Escola+Municipal+Celia+Guedes/data=!4m7!3m6!1s0x94cdcb6e18633223:0x924f613e6e953a85!8m2!3d-23.2813756!4d-45.9498069!16s%2Fg%2F1tg2lsnn!19sChIJIzJjGG7LzZQRhTqVbj5hT5I?authuser=0&hl=pt-BR&rclk=1,scraper_gmaps|escola municipal Jacareí - SP
aec8a7988f8e89f2,Escola Municipal Jardim do Vale,"· Av. Suzana de Castro Ramos, 826",-23.3222388,-45.9683638,,,,,,Escola de educação geral,,https://www.google.com/maps/place/Escola+Municipal+Jardim+do+Vale/data=!4m7!3m6!1s0x94cdcb9b24f996cf:0x6222773a6d8baa25!8m2!3d-23.3222388!4d-45.9683638!16s%2Fg%2F1tpn3pk9!19sChIJz5b5JJvLzZQRJaqLbTp3ImI?authuser=0&hl=pt-BR&rclk=1,scraper_gmaps|escola municipal Jacareí - SP
8333cea2db1f20de,EMEF Professor Tito Máximo,,-23.3059028,-45.9570292,,,,,,Escola de ensino fundamental,,https://www.google.com/maps/place/EMEF+Professor+Tito+M%C3%A1ximo/data=!4m7!3m6!1s0x94cdcb0c33b45557:0xe9854a0db61b12f6!8m2!3d-23.3059028!4d-45.9570292!16s%2Fg%2F1td8_738!19sChIJV1W0MwzLzZQR9hIbtg1Khek?authuser=0&hl=pt-BR&rclk=1,scraper_gmaps|escola municipal Jacareí - SP
4dd37f22804a4ccb,Escola Municipal Antônio Lellis Vieira,"· Av. Dr. João Vítor Lamana, 72",-23.2810945,-45.9433354,,,,,,Escola pública,,https://www.google.com/maps/place/Escola+Municipal+Ant%C3%B4nio+Lellis+Vieira/data=!4m7!3m6!1s0x94cdcb27a160b0dd:0x8e77bfc0c49cea65!8m2!3d-23.2810945!4d-45.9433354!16s%2Fg%2F1ydntv16s!19sChIJ3bBgoSfLzZQRZeqcxMC_d44?authuser=0&hl=pt-BR&rclk=1,scraper_gmaps|escola municipal Jacareí - SP
d121f80cadec7dfa,EMEF Conceição Aparecida Magalhães Silva,,-23.3177808,-45.9388422,,,,,,Escola de educação geral,,https://www.google.com/maps/place/EMEF+Concei%C3%A7%C3%A3o+Aparecida+Magalh%C3%A3es+Silva/data=!4m7!3m6!1s0x94cdca4e0b7d7d51:0x3aef6a050bbfeeeb!8m2!3d-23.3177808!4d-45.9388422!16s%2Fg%2F1t_khndw!19sChIJUX19C07KzZQR6-6_CwVq7zo?authuser=0&hl=pt-BR&rclk=1,scraper_gmaps|escola municipal Jacareí - SP
9c02227c5718099a,Escola Municipal de Ensino Fundamental Prebistero Mábito Shoji,,-23.3070595,-46.0390265,,,,,,Escola pública,,https://www.google.com/maps/place/Escola+Municipal+de+Ensino+Fundamental+Prebistero+M%C3%A1bito+Shoji/data=!4m7!3m6!1s0x94cdcd4a305beb0f:0x2934ed5edda51bb0!8m2!3d-23.3070595!4d-46.0390265!16s%2Fg%2F1tj58wtn!19sChIJD-tbMErNzZQRsBul3V7tNCk?authuser=0&hl=pt-BR&rclk=1,scraper_gmaps|escola municipal Jacareí - SP
7267789bd63aecd0,Escola Municipal Vicentina das Dores Queiroz,,-23.2954082,-45.9507217,,,,,,Escola de educação geral,,https://www.google.com/maps/place/Escola+Municipal+Vicentina+das+Dores+Queiroz/data=!4m7!3m6!1s0x94cdcb2261f2924b:0x1ed99b655d3cdf76!8m2!3d-23.2954082!4d-45.9507217!16s%2Fg%2F1yfjpnllc!19sChIJS5LyYSLLzZQRdt88XWWb2R4?authuser=0&hl=pt-BR&rclk=1,scraper_gmaps|escola municipal Jacareí - SP
edb92f4a36a3ff56,Maria Regina Cachute Professora Emef,"· Av. Nilo David, 65",-23.3159346,-46.0189604,,,,,,Escola de ensino fundamental,,https://www.google.com/maps/place/Maria+Regina+Cachute+Professora+Emef/data=!4m7!3m6!1s0x94cdcce3a36b7e37:0x747dc524c9823d27!8m2!3d-23.3159346!4d-46.0189604!16s%2Fg%2F11gcx_4_2s!19sChIJN35ro-PMzZQRJz2CySTFfXQ?authuser=0&hl=pt-BR&rclk=1,scraper_gmaps|escola municipal Jacareí - SP
5ad03c5060b200a9,EMEI Comendador Antônio Loureiro Cardoso,"· Av. Engº Flávio S. Freitas, 870",-23.2977755,-46.0361744,,,,,,Escola de ensino fundamental,,https://www.google.com/maps/place/EMEI+Comendador+Ant%C3%B4nio+Loureiro+Cardoso/data=!4m7!3m6!1s0x94cc32ca19f9fdd3:0x88441e9648af52db!8m2!3d-23.2977755!4d-46.0361744!16s%2Fg%2F1wk4f4x3!19sChIJ0_35GcoyzJQR21KvSJYeRIg?authuser=0&hl=pt-BR&rclk=1,scraper_gmaps|escola municipal Jacareí - SP
27ea8f75ec368d4a,Emeif Prof Tarcisio Francisco Barbosa,,-23.2875482,-46.0339422,,,,,,Escola de ensino fundamental,,https://www.google.com/maps/place/Emeif+Prof+Tarcisio+Francisco+Barbosa/data=!4m7!3m6!1s0x94cc3353664e3021:0x3b3c565f8cae3187!8m2!3d-23.2875482!4d-46.0339422!16s%2Fg%2F11fhw86hr1!19sChIJITBOZlMzzJQRhzGujF9WPDs?authuser=0&hl=pt-BR&rclk=1,scraper_gmaps|escola municipal Jacareí - SP
a043d684b0713627,Escola Municipal de Educação Infantil Cidade Nova Jacarei,,-23.3064284,-46.0175735,,,,"1,0",1,Jardim de infância,,https://www.google.com/maps/place/Escola+Municipal+de+Educa%C3%A7%C3%A3o+Infantil+Cidade+Nova+Jacarei/data=!4m7!3m6!1s0x94cdccd86e448a05:0x6a10bc35c8b627f0!8m2!3d-23.3064284!4d-46.0175735!16s%2Fg%2F1tgptr1n!19sChIJBYpEbtjMzZQR8Ce2yDW8EGo?authuser=0&hl=pt-BR&rclk=1,scraper_gmaps|escola municipal Jacareí - SP
5d19ae6a80f9c048,EMEIF Maria Augusta Ribeiro Daher,,-23.3031431,-45.9582569,,,,,,Escola de ensino fundamental,,https://www.google.com/maps/place/EMEIF+Maria+Augusta+Ribeiro+Daher/data=!4m7!3m6!1s0x94cdcb0d86b003dd:0x7d559685bc79f1ba!8m2!3d-23.3031431!4d-45.9582569!16s%2Fg%2F1tw1fyyr!19sChIJ3QOwhg3LzZQRuvF5vIWWVX0?authuser=0&hl=pt-BR&rclk=1,scraper_gmaps|escola municipal Jacareí - SP
0512bfa0cc8a6384,Neusa Teodoro de Azevedo Profa,,-23.2984841,-45.9480892,,,,,,Escola de ensino fundamental,,https://www.google.com/maps/place/Neusa+Teodoro+de+Azevedo+Profa/data=!4m7!3m6!1s0x94cdcb6d762e1a07:0x3ac7c94a8f743c73!8m2!3d-23.2984841!4d-45.9480892!16s%2Fg%2F1tyt6gh4!19sChIJBxoudm3LzZQRczx0j0rJxzo?authuser=0&hl=pt-BR&rclk=1,scraper_gmaps|escola municipal Jacareí - SP
e958613dce3d0296,EMEF Professor Aristeu Jose Turci,,-23.3019419,-46.0358934,,,,,,Escola de ensino fundamental,,https://www.google.com/maps/place/EMEF+Professor+Aristeu+Jose+Turci/data=!4m7!3m6!1s0x94cdcdffa8aec5ed:0x382996c95574f36e!8m2!3d-23.3019419!4d-46.0358934!16s%2Fg%2F11hzchrryt!19sChIJ7cWuqP_NzZQRbvN0VcmWKTg?authuser=0&hl=pt-BR&rclk=1,scraper_gmaps|escola municipal Jacareí - SP
1cd28617ae3af18f,EMEI Doutora Zilda Arns,"· Av. Dante Siani, 1228",-23.2956405,-45.928406,,,,,,Escola de educação geral,,https://www.google.com/maps/place/EMEI+Doutora+Zilda+Arns/data=!4m7!3m6!1s0x94cdcaf16568a5d9:0x5ec83d5df6c9e4e5!8m2!3d-23.2956405!4d-45.928406!16s%2Fg%2F1ptvzt7d6!19sChIJ2aVoZfHKzZQR5eTJ9l09yF4?authuser=0&hl=pt-BR&rclk=1,scraper_gmaps|escola municipal Jacareí - SP
940cfc42e1008d2c,Escola Municipal Jardim Paraiba,,-23.2959707,-45.9796094,,,,,,Escola de educação geral,,https://www.google.com/maps/place/Escola+Municipal+Jardim+Paraiba/data=!4m7!3m6!1s0x94cdcb58ad8f773b:0xc9e451d2fe95a78!8m2!3d-23.2959707!4d-45.9796094!16s%2Fg%2F1tcx2n3y!19sChIJO3ePrVjLzZQReFrpLx1Fngw?authuser=0&hl=pt-BR&rclk=1,scraper_gmaps|escola municipal Jacareí - SP
7cc76317d102020e,EMEI Afonsino Vilhena da Silva,,-23.3018202,-45.9332531,,,,,,Escola de ensino fundamental,,https://www.google.com/maps/place/EMEI+Afonsino+Vilhena+da+Silva/data=!4m7!3m6!1s0x94cdcaf8084eeced:0xaa89f14f17915530!8m2!3d-23.3018202!4d-45.9332531!16s%2Fg%2F1thgj49s!19sChIJ7exOCPjKzZQRMFWRF0_xiao?authuser=0&hl=pt-BR&rclk=1,scraper_gmaps|escola municipal Jacareí - SP
66dfee624f5b0d73,EMEF Beatriz Junqueira da Silveira Santos,,-23.2599255,-45.9676664,,,,,,Ensino Fundamental,,https://www.google.com/maps/place/EMEF+Beatriz+Junqueira+da+Silveira+Santos/data=!4m7!3m6!1s0x94cc356cd4ce9881:0x3eb16ae2caebf290!8m2!3d-23.2599255!4d-45.9676664!16s%2Fg%2F11l2yq19ky!19sChIJgZjO1Gw1zJQRkPLryuJqsT4?authuser=0&hl=pt-BR&rclk=1,scraper_gmaps|escola municipal Jacareí - SP
30f3170abc209ab5,EMEI Prof Vicentina das Dores Queiroz,,-23.2945862,-45.9505629,,,,,,Escola de ensino fundamental,,https://www.google.com/maps/place/EMEI+Prof+Vicentina+das+Dores+Queiroz/data=!4m7!3m6!1s0x94cdcb19eecabdc9:0x83d36125fcc6a01d!8m2!3d-23.2945862!4d-45.9505629!16s%2Fg%2F11bwpt7gp4!19sChIJyb3K7hnLzZQRHaDG_CVh04M?authuser=0&hl=pt-BR&rclk=1,scraper_gmaps|escola municipal Jacareí - SP
9c748c9bd30c2162,EMEF santo Antônio da Boa Vista,"· Av. Rômulo Rossi, 710",-23.3201704,-45.9270441,,,,,,Ensino Fundamental,,https://www.google.com/maps/place/EMEF+santo+Ant%C3%B4nio+da+Boa+Vista/data=!4m7!3m6!1s0x94cdcb735e887c19:0xf77d49172f57adb6!8m2!3d-23.3201704!4d-45.9270441!16s%2Fg%2F11sn9ptvyx!19sChIJGXyIXnPLzZQRtq1XLxdJffc?authuser=0&hl=pt-BR&rclk=1,scraper_gmaps|escola municipal Jacareí - SP
9fbcdfcd9c77713c,Escola Estadual João Cruz,"· Av. José Ribeiro Moreira, 100",-23.2850403,-45.939448,,,,,,Escola pública,,https://www.google.com/maps/place/Escola+Estadual+Jo%C3%A3o+Cruz/data=!4m7!3m6!1s0x94cdcadf71d51485:0x40ab832fef0a9366!8m2!3d-23.2850403!4d-45.939448!16s%2Fg%2F1tkr0cym!19sChIJhRTVcd_KzZQRZpMK7y-Dq0A?authuser=0&hl=pt-BR&rclk=1,scraper_gmaps|escola municipal Jacareí - SP
2ac921b0596a0430,EMEI PROFESSOR OSWALDO PIRIS DE OLIVEIRA,,-23.2938368,-45.9833454,,,,"4,8",5,Pré-escola,,https://www.google.com/maps/place/EMEI+PROFESSOR+OSWALDO+PIRIS+DE+OLIVEIRA/data=!4m7!3m6!1s0x94cdcd1a23fb72bf:0x763bf9b2bc5a9818!8m2!3d-23.2938368!4d-45.9833454!16s%2Fg%2F11n03pfh5l!19sChIJv3L7IxrNzZQRGJhavLL5O3Y?authuser=0&hl=pt-BR&rclk=1,scraper_gmaps|escola municipal Jacareí - SP
8abd544301f6df71,EDUCAMAIS,"· Av. Lucas Nogueira Garcês, 395",-23.3114495,-45.9990113,,,,"4,0",27,Instituição educacional,,https://www.google.com/maps/place/EDUCAMAIS/data=!4m7!3m6!1s0x94cdcc94c6fcf37f:0xbdebea3f014430ba!8m2!3d-23.3114495!4d-45.9990113!16s%2Fg%2F11cn10rmx7!19sChIJf_P8xpTMzZQRujBEAT_q670?authuser=0&hl=pt-BR&rclk=1,scraper_gmaps|escola municipal Jacareí - SP
e34761eb988fc1f7,Escola Pequeno Polegar de Educação Infantil e Ens. Fundamental,,-23.2994228,-45.9353076,,,,"4,9",69,Centro de educação pré-escolar,,https://www.google.com/maps/place/Escola+Pequeno+Polegar+de+Educa%C3%A7%C3%A3o+Infantil+e+Ens.+Fundamental/data=!4m7!3m6!1s0x94cdcaf963fab299:0xbfe6178ed2062046!8m2!3d-23.2994228!4d-45.9353076!16s%2Fg%2F1tz72hmr!19sChIJmbL6Y_nKzZQRRiAG0o4X5r8?authuser=0&hl=pt-BR&rclk=1,scraper_gmaps|escola municipal Jacareí - SP
53df801755f5fe62,EMEI Antonio Joaquim Mesquita,,-23.2596516,-45.9679382,,,,"5,0",1,Jardim de infância,,https://www.google.com/maps/place/EMEI+Antonio+Joaquim+Mesquita/data=!4m7!3m6!1s0x94cc34bd9b0759eb:0xfb7c827eaa654c51!8m2!3d-23.2596516!4d-45.9679382!16s%2Fg%2F11cjm6dqmc!19sChIJ61kHm700zJQRUUxlqn6CfPs?authuser=0&hl=pt-BR&rclk=1,scraper_gmaps|escola municipal Jacareí - SP
2f381e4fae520c4e,EMEF Hugo Del Mônaco,"· Rua Santa Terezinha, nº 1100 – Bela Vista – 12.309",-23.3134968,-45.9613501,,,,,,Escola de educação geral,,https://www.google.com/maps/place/EMEF+Hugo+Del+M%C3%B4naco/data=!4m7!3m6!1s0x94cdcbf01bdfbbc1:0xd91315f306c77e9!8m2!3d-23.3134968!4d-45.9613501!16s%2Fg%2F11j0ryf1bj!19sChIJwbvfG_DLzZQR6XdsMF8xkQ0?authuser=0&hl=pt-BR&rclk=1,scraper_gmaps|escola municipal Jacareí - SP
99e2811870a0086c,EMEI PAULO RENATO - EMEI CECAP,,-23.2930499,-45.9440237,,,,"5,0",2,Pré-escola,,https://www.google.com/maps/place/EMEI+PAULO+RENATO+-+EMEI+CECAP/data=!4m7!3m6!1s0x94cdcb0e7eb06749:0xcc35a06f803b227c!8m2!3d-23.2930499!4d-45.9440237!16s%2Fg%2F11gy82qnkw!19sChIJSWewfg7LzZQRfCI7gG-gNcw?authuser=0&hl=pt-BR&rclk=1,scraper_gmaps|escola municipal Jacareí - SP
fe81e00ca5d5b67c,Jean Jacques Rousseau Emei,,-23.3314967,-45.9977443,,,,,,Instituição educacional,,https://www.google.com/maps/place/Jean+Jacques+Rousseau+Emei/data=!4m7!3m6!1s0x94cdcc67374e0f91:0xd9987c4ddbb31c10!8m2!3d-23.3314967!4d-45.9977443!16s%2Fg%2F11c37km553!19sChIJkQ9ON2fMzZQREByz2018mNk?authuser=0&hl=pt-BR&rclk=1,scraper_gmaps|escola municipal Jacareí - SP
22d9f2eae27feba1,Ricardina dos Santos de Moraes Profa,,-23.3133984,-46.0095505,,,,,,Escola de educação geral,,https://www.google.com/maps/place/Ricardina+dos+Santos+de+Moraes+Profa/data=!4m7!3m6!1s0x94cdcce7b7ff3a43:0x67ed598691d12cf3!8m2!3d-23.3133984!4d-46.0095505!16s%2Fg%2F1td6ns95!19sChIJQzr_t-fMzZQR8yzRkYZZ7Wc?authuser=0&hl=pt-BR&rclk=1,scraper_gmaps|escola municipal Jacareí - SP
36218f7d58b15b55,EMEIF. Professora Adélia Pereira Braz Rossi,"· Av. Rômulo Rossi, 679",-23.3197216,-45.9268787,,,,,,Ensino Fundamental,,https://www.google.com/maps/place/EMEIF.+Professora+Ad%C3%A9lia+Pereira+Braz+Rossi/data=!4m7!3m6!1s0x94cdcb592200e3ff:0xe115d26fea45c2a8!8m2!3d-23.3197216!4d-45.9268787!16s%2Fg%2F11rtytp5yx!19sChIJ_-MAIlnLzZQRqMJF6m_SFeE?authuser=0&hl=pt-BR&rclk=1,scraper_gmaps|escola municipal Jacareí - SP
f2e4e3f480d7afc2,EMEI Thiago Silva Santos,,-23.3012736,-45.9540631,,,,,,Escola de ensino fundamental,,https://www.google.com/maps/place/EMEI+Thiago+Silva+Santos/data=!4m7!3m6!1s0x94cdcbaf833af6b5:0x827b5223c425cf55!8m2!3d-23.3012736!4d-45.9540631!16s%2Fg%2F11fgm43bkz!19sChIJtfY6g6_LzZQRVc8lxCNSe4I?authuser=0&hl=pt-BR&rclk=1,scraper_gmaps|escola municipal Jacareí - SP
77305579ed5cffc5,Mercado Municipal de Jacareí,,-23.303525,-45.9702193,,,,"4,3",8164,Mercado,,https://www.google.com/maps/place/Mercado+Municipal+de+Jacare%C3%AD/data=!4m7!3m6!1s0x94cdcb6f5e8b6f31:0xa8f3ca8578b89295!8m2!3d-23.303525!4d-45.9702193!16s%2Fg%2F11b75j8d7f!19sChIJMW-LXm_LzZQRlZK4eIXK86g?authuser=0&hl=pt-BR&rclk=1,scraper_gmaps|escola municipal Jacareí - SP
ce0f2bb9443437b9,Secretaria Municipal de Educação,,-23.3068359,-45.9710452,,,,"3,4",107,Prefeitura,,https://www.google.com/maps/place/Secretaria+Municipal+de+Educa%C3%A7%C3%A3o/data=!4m7!3m6!1s0x94cdcb655a82f6cd:0xb2d21f084e7ae766!8m2!3d-23.3068359!4d-45.9710452!16s%2Fg%2F1hc5jxw10!19sChIJzfaCWmXLzZQRZud6Tggf0rI?authuser=0&hl=pt-BR&rclk=1,scraper_gmaps|escola municipal Jacareí - SP
ed4ba6b388c00d05,Adelia Monteiro Profa,,-23.320556,-45.9667724,,,,,,Escola de educação geral,,https://www.google.com/maps/place/Adelia+Monteiro+Profa/data=!4m7!3m6!1s0x94cdcb9becdd1877:0x8e3745abc2b1f60f!8m2!3d-23.320556!4d-45.9667724!16s%2Fg%2F1tj347kq!19sChIJdxjd7JvLzZQRD_axwqtFN44?authuser=0&hl=pt-BR&rclk=1,scraper_gmaps|escola municipal Jacareí - SP
5d38a4b297299841,Escola Municipal de Educação Infantil Jardim Panorama,,-23.3191555,-45.9810012,,,,"2,3",4,Jardim de infância,,https://www.google.com/maps/place/Escola+Municipal+de+Educa%C3%A7%C3%A3o+Infantil+Jardim+Panorama/data=!4m7!3m6!1s0x94cdcc80131af159:0x7dd370c07fc5544a!8m2!3d-23.3191555!4d-45.9810012!16s%2Fg%2F1tl1pkhk!19sChIJWfEaE4DMzZQRSlTFf8Bw030?authuser=0&hl=pt-BR&rclk=1,scraper_gmaps|escola municipal Jacareí - SP
d1d9b7ab9034119a,EMEF Claudia Maria Gaspar Queiroz do Prado,,-23.2963147,-45.9280208,,,,,,Escola de ensino fundamental,,https://www.google.com/maps/place/EMEF+Claudia+Maria+Gaspar+Queiroz+do+Prado/data=!4m7!3m6!1s0x94cdcbe34c0f647f:0x4bfac1286429c357!8m2!3d-23.2963147!4d-45.9280208!16s%2Fg%2F11h88tdmtj!19sChIJf2QPTOPLzZQRV8MpZCjB-ks?authuser=0&hl=pt-BR&rclk=1,scraper_gmaps|escola municipal Jacareí - SP
cb5327bd7d4e7b65,Escola Estadual Carlos Porto,,-23.3068505,-45.9722632,,,,,,Escola pública,,https://www.google.com/maps/place/Escola+Estadual+Carlos+Porto/data=!4m7!3m6!1s0x94cdcb6d762e1a07:0x25bba063e1f276d3!8m2!3d-23.3068505!4d-45.9722632!16s%2Fg%2F1tykwhrj!19sChIJBxoudm3LzZQR03by4WOguyU?authuser=0&hl=pt-BR&rclk=1,scraper_gmaps|escola municipal Jacareí - SP
521cd5d0a205f473,COMPLEXO EDUCACIONAL PAULO FREIRE,"· Av. Engenheiro Davi Monteiro Lino, 3595",-23.2789828,-45.954026,,,,"4,7",316,Escola,,https://www.google.com/maps/place/COMPLEXO+EDUCACIONAL+PAULO+FREIRE/data=!4m7!3m6!1s0x94cdcb6958711a33:0xdb28485af967095a!8m2!3d-23.2789828!4d-45.954026!16s%2Fg%2F11bvvzjpld!19sChIJMxpxWGnLzZQRWgln-VpIKNs?authuser=0&hl=pt-BR&rclk=1,scraper_gmaps|escola municipal Jacareí - SP
91c62402b6fd8022,E.E. Doutor Pompilío Mercadante,,-23.3107308,-45.985189,,,,,,Escola de educação geral,,https://www.google.com/maps/place/E.E.+Doutor+Pompil%C3%ADo+Mercadante/data=!4m7!3m6!1s0x94cdcc9b64e83fb5:0x77b99009680c01ad!8m2!3d-23.3107308!4d-45.985189!16s%2Fg%2F1tjrr29q!19sChIJtT_oZJvMzZQRrQEMaAmQuXc?authuser=0&hl=pt-BR&rclk=1,scraper_gmaps|escola municipal Jacareí - SP
af54a5ebd002627d,Francisco Gomes da Silva Prado Dr,,-23.3016376,-45.9584986,,,,,,Escola pública,,https://www.google.com/maps/place/Francisco+Gomes+da+Silva+Prado+Dr/data=!4m7!3m6!1s0x94cdcb6d762e1a07:0xe4f529c67cb6b7b6!8m2!3d-23.3016376!4d-45.9584986!16s%2Fg%2F1tfv677b!19sChIJBxoudm3LzZQRtre2fMYp9eQ?authuser=0&hl=pt-BR&rclk=1,scraper_gmaps|escola municipal Jacareí - SP
a2f7760d8f275ad1,Emef Barão De Jacareí,,-23.2659321,-45.9266672,,,,"3,7",3,Creche,,https://www.google.com/maps/place/Emef+Bar%C3%A3o+De+Jacare%C3%AD/data=!4m7!3m6!1s0x94cdcb759f09e173:0xc1865c93ca45b996!8m2!3d-23.2659321!4d-45.9266672!16s%2Fg%2F11fjt34nqb!19sChIJc-EJn3XLzZQRlrlFypNchsE?authuser=0&hl=pt-BR&rclk=1,scraper_gmaps|escola municipal Jacareí - SP
24178f1a79d7644a,Escola Estadual Sílvio José Secco,,-23.2963365,-45.927921,,,,,,Escola de educação geral,,https://www.google.com/maps/place/Escola+Estadual+S%C3%ADlvio+Jos%C3%A9+Secco/data=!4m7!3m6!1s0x94cdcb6d762e1a07:0x51b760a80880a93e!8m2!3d-23.2963365!4d-45.927921!16s%2Fg%2F1tjdh9n0!19sChIJBxoudm3LzZQRPqmACKhgt1E?authuser=0&hl=pt-BR&rclk=1,scraper_gmaps|escola municipal Jacareí - SP
8fa059837a001195,Creche Professora Sueli Maria Duque Silva,"· Rua Professora Olinda de Almeida Mercadante, 1535",-23.3174909,-45.9471597,,,,"5,0",1,Pré-escola,,https://www.google.com/maps/place/Creche+Professora+Sueli+Maria+Duque+Silva/data=!4m7!3m6!1s0x94cdcb753ecd2767:0x31bddd495782b739!8m2!3d-23.3174909!4d-45.9471597!16s%2Fg%2F11tsfc5r_s!19sChIJZyfNPnXLzZQRObeCV0ndvTE?authuser=0&hl=pt-BR&rclk=1,scraper_gmaps|escola municipal Jacareí - SP
dce5e186b016aed8,E.E. Professora Hermínia Silva de Mesquita,,-23.2919344,-45.9567547,,,,,,Escola de ensino fundamental,,https://www.google.com/maps/place/E.E.+Professora+Herm%C3%ADnia+Silva+de+Mesquita/data=!4m7!3m6!1s0x94cdcb6d762e1a07:0x488e62d0da04987e!8m2!3d-23.2919344!4d-45.9567547!16s%2Fg%2F1tp097nk!19sChIJBxoudm3LzZQRfpgE2tBijkg?authuser=0&hl=pt-BR&rclk=1,scraper_gmaps|escola municipal Jacareí - SP
c19e3aa5294f2093,Creche São João - Profª Dirce de Miranda,,-23.3093438,-45.9769095,,,,"5,0",3,Jardim de infância,,https://www.google.com/maps/place/Creche+S%C3%A3o+Jo%C3%A3o+-+Prof%C2%AA+Dirce+de+Miranda/data=!4m7!3m6!1s0x94cdcb3f3d226207:0x861d0949252fb522!8m2!3d-23.3093438!4d-45.9769095!16s%2Fg%2F11h2nd0czt!19sChIJB2IiPT_LzZQRIrUvJUkJHYY?authuser=0&hl=pt-BR&rclk=1,scraper_gmaps|escola municipal Jacareí - SP
1f65fefc56923a9c,CRECHE JARDIM COLÔNIA,,-23.3241096,-45.9208386,,,,"5,0",5,Jardim de infância,,https://www.google.com/maps/place/CRECHE+JARDIM+COL%C3%94NIA/data=!4m7!3m6!1s0x94cdcbe248884bd3:0x9434ece5b34f4a7b!8m2!3d-23.3241096!4d-45.9208386!16s%2Fg%2F11gy83fqlk!19sChIJ00uISOLLzZQRe0pPs-XsNJQ?authuser=0&hl=pt-BR&rclk=1,scraper_gmaps|escola municipal Jacareí - SP
6559d4728337c1f9,Escola Estadual Maria Helena Denis Figueiredo,"· Av. Darcí de Oliveira Réis, 530",-23.3139288,-45.961536,,,,,,Escola de educação geral,,https://www.google.com/maps/place/Escola+Estadual+Maria+Helena+Denis+Figueiredo/data=!4m7!3m6!1s0x94cdcb75729d0595:0x22d90209ce379826!8m2!3d-23.3139288!4d-45.961536!16s%2Fg%2F1tmpg158!19sChIJlQWdcnXLzZQRJpg3zgkC2SI?authuser=0&hl=pt-BR&rclk=1,scraper_gmaps|escola municipal Jacareí - SP
abc4f3be29443987,Escola José Simplício,,-23.3205794,-45.9663416,,,,,,Escola de ensino médio,,https://www.google.com/maps/place/Escola+Jos%C3%A9+Simpl%C3%ADcio/data=!4m7!3m6!1s0x94cdcb9be58073d1:0x7431cc444df7c405!8m2!3d-23.3205794!4d-45.9663416!16s%2Fg%2F1ttdzkj1!19sChIJ0XOA5ZvLzZQRBcT3TUTMMXQ?authuser=0&hl=pt-BR&rclk=1,scraper_gmaps|escola municipal Jacareí - SP
94ae20b4716399d8,E.E. Profª Alcina Moraes Salles,,-23.2968444,-46.0353088,,,,,,Escola de ensino fundamental e médio,,https://www.google.com/maps/place/E.E.+Prof%C2%AA+Alcina+Moraes+Salles/data=!4m7!3m6!1s0x94cc32cbb1b87053:0x4a1a49a1be147111!8m2!3d-23.2968444!4d-46.0353088!16s%2Fg%2F1trsz3ml!19sChIJU3C4scsyzJQREXEUvqFJGko?authuser=0&hl=pt-BR&rclk=1,scraper_gmaps|escola municipal Jacareí - SP
e7c3b26a8a7a3cf3,E.E. João Feliciano,,-23.305325,-45.96109,,,,,,Escola de ensino fundamental,,https://www.google.com/maps/place/E.E.+Jo%C3%A3o+Feliciano/data=!4m7!3m6!1s0x94cdcb0db2b974e5:0xbee726fd451f8bb!8m2!3d-23.305325!4d-45.96109!16s%2Fg%2F1tdfjt75!19sChIJ5XS5sg3LzZQRu_hR1G9y7gs?authuser=0&hl=pt-BR&rclk=1,scraper_gmaps|escola municipal Jacareí - SP
45ca8a9ee9e8e9b3,Verano Câmara,,-23.3095879,-45.9412035,,,,,,Escola de ensino médio,,https://www.google.com/maps/place/Verano+C%C3%A2mara/data=!4m7!3m6!1s0x94cdca5370ca5647:0x1e927e7474254bc4!8m2!3d-23.3095879!4d-45.9412035!16s%2Fg%2F1yfjjhg8s!19sChIJR1bKcFPKzZQRxEsldHR-kh4?authuser=0&hl=pt-BR&rclk=1,scraper_gmaps|escola municipal Jacareí - SP
1af3872aadcc37d8,Escola Municipal São Silvestre,,-23.3635152,-46.0162051,,,,,,Escola de educação geral,,https://www.google.com/maps/place/Escola+Municipal+S%C3%A3o+Silvestre/data=!4m7!3m6!1s0x94cdcb6e18633223:0x18d111e269c3c058!8m2!3d-23.3635152!4d-46.0162051!16s%2Fg%2F1tdyb5dj!19sChIJIzJjGG7LzZQRWMDDaeIR0Rg?authuser=0&hl=pt-BR&rclk=1,scraper_gmaps|escola municipal Jacareí - SP
8fb6cfe7c77abf37,Creche Municipal Bandeira Branca,,-23.3316325,-45.9981972,,,,"4,0",8,Instituição educacional,,https://www.google.com/maps/place/Creche+Municipal+Bandeira+Branca/data=!4m7!3m6!1s0x94cdcc674820c89f:0x65693666a16ab156!8m2!3d-23.3316325!4d-45.9981972!16s%2Fg%2F1ydkbjgzj!19sChIJn8ggSGfMzZQRVrFqoWY2aWU?authuser=0&hl=pt-BR&rclk=1,scraper_gmaps|escola municipal Jacareí - SP
aa5670960b69d02d,Centro de Educação Integral André Franco Montoro,"· Av. Santa Cruz dos Lázaros, 466",-23.3105239,-45.9914173,,,,,,Escola de educação geral,,https://www.google.com/maps/place/Centro+de+Educa%C3%A7%C3%A3o+Integral+Andr%C3%A9+Franco+Montoro/data=!4m7!3m6!1s0x94cdcd001e980021:0xe67950c3b35dac5!8m2!3d-23.3105239!4d-45.9914173!16s%2Fg%2F11vsv06ty1!19sChIJIQCYHgDNzZQRxdo1OwyVZw4?authuser=0&hl=pt-BR&rclk=1,scraper_gmaps|escola municipal Jacareí - SP
dc0656a1cf3b92bb,EMEIF Prof. Ayrton Soares do Nascimento,,-23.2570707,-46.0324397,,,,,,Escola de ensino fundamental,,https://www.google.com/maps/place/EMEIF+Prof.+Ayrton+Soares+do+Nascimento/data=!4m7!3m6!1s0x94cc33bfe95307db:0x97f75cbb04352390!8m2!3d-23.2570707!4d-46.0324397!16s%2Fg%2F1tk240_q!19sChIJ2wdT6b8zzJQRkCM1BLtc95c?authuser=0&hl=pt-BR&rclk=1,scraper_gmaps|escola municipal Jacareí - SP
376a77a61f5a2d8a,EE Maria de Lourdes Vilela,,-23.3361682,-45.9999389,,,,,,Escola de ensino fundamental,,https://www.google.com/maps/place/EE+Maria+de+Lourdes+Vilela/data=!4m7!3m6!1s0x94cdcc5d9e4e3171:0xdd07a53032ff36bc!8m2!3d-23.3361682!4d-45.9999389!16s%2Fg%2F11csc8w_9p!19sChIJcTFOnl3MzZQRvDb_MjClB90?authuser=0&hl=pt-BR&rclk=1,scraper_gmaps|escola municipal Jacareí - SP
28ed9cc59b5b803a,Creche Cecilia Barbosa de Mello,,-23.2981594,-45.9636299,,,,"5,0",4,Creche,,https://www.google.com/maps/place/Creche+Cecilia+Barbosa+de+Mello/data=!4m7!3m6!1s0x94cdcb14cd9bb325:0xa51e60bf180fc429!8m2!3d-23.2981594!4d-45.9636299!16s%2Fg%2F11h89gbsqx!19sChIJJbObzRTLzZQRKcQPGL9gHqU?authuser=0&hl=pt-BR&rclk=1,scraper_gmaps|escola municipal Jacareí - SP
439a0bf513ae851b,Creche Geralda Pinheiro,"· Av. Getúlio Dorneles Vargas, 190",-23.2845878,-45.9521504,,,,"5,0",1,Pré-escola,,https://www.google.com/maps/place/Creche+Geralda+Pinheiro/data=!4m7!3m6!1s0x94cdcb07f7129537:0x3919d057271f4648!8m2!3d-23.2845878!4d-45.9521504!16s%2Fg%2F11j_2lr388!19sChIJN5US9wfLzZQRSEYfJ1fQGTk?authuser=0&hl=pt-BR&rclk=1,scraper_gmaps|escola municipal Jacareí - SP
792631300fb52039,Educa Mais,"· Av. Pedra Santa, 941-1021",-23.3133515,-45.9577769,,,,"4,3",138,Parque municipal,,https://www.google.com/maps/place/Educa+Mais/data=!4m7!3m6!1s0x94cdcba09358b51d:0x248ca9574e083693!8m2!3d-23.3133515!4d-45.9577769!16s%2Fg%2F11c1nkcbkm!19sChIJHbVYk6DLzZQRkzYITlepjCQ?authuser=0&hl=pt-BR&rclk=1,scraper_gmaps|escola municipal Jacareí - SP
6e6e8009ea05ec2b,CRECHE VILLA BRANCA,"· Av. Tarsila do Amaral, 191",-23.2636614,-45.942629,,,,"4,3",6,Jardim de infância,,https://www.google.com/maps/place/CRECHE+VILLA+BRANCA/data=!4m7!3m6!1s0x94cc35a2de9b65df:0x22e740af49f1d8a6!8m2!3d-23.2636614!4d-45.942629!16s%2Fg%2F11fj8b0fzq!19sChIJ32Wb3qI1zJQRptjxSa9A5yI?authuser=0&hl=pt-BR&rclk=1,scraper_gmaps|escola municipal Jacareí - SP
c24d5c807cbb28bb,Escola Estadual Olivia do Amaral Santos Canettieri,,-23.2616014,-45.9630985,,,,"4,0",8,Instituição educacional,,https://www.google.com/maps/place/Escola+Estadual+Olivia+do+Amaral+Santos+Canettieri/data=!4m7!3m6!1s0x94cc34bf2f9e009d:0x650a727dfd27e3f6!8m2!3d-23.2616014!4d-45.9630985!16s%2Fg%2F1vvdwb84!19sChIJnQCeL780zJQR9uMn_X1yCmU?authuser=0&hl=pt-BR&rclk=1,scraper_gmaps|escola municipal Jacareí - SP
811e4d9209bb2ef0,Creche Profª Yolanda Barbosa Da Silva,"· Av. Dante Siani, 1210",-23.2955124,-45.9288094,,,,"4,8",5,Creche,,https://www.google.com/maps/place/Creche+Prof%C2%AA+Yolanda+Barbosa+Da+Silva/data=!4m7!3m6!1s0x94cdcb7b9a6df06b:0x2955dc6727daf245!8m2!3d-23.2955124!4d-45.9288094!16s%2Fg%2F11h2ndcx01!19sChIJa_BtmnvLzZQRRfLaJ2fcVSk?authuser=0&hl=pt-BR&rclk=1,scraper_gmaps|escola municipal Jacareí - SP
92960f87cf7e68a4,Creche Municipal Sueli Montenegro Ahmed,,-23.3149009,-45.9366995,,,,"5,0",1,Jardim de infância,,https://www.google.com/maps/place/Creche+Municipal+Sueli+Montenegro+Ahmed/data=!4m7!3m6!1s0x94cdcb00554c131d:0x5697bc38c526dd1e!8m2!3d-23.3149009!4d-45.9366995!16s%2Fg%2F11vslhq9wg!19sChIJHRNMVQDLzZQRHt0mxTi8l1Y?authuser=0&hl=pt-BR&rclk=1,scraper_gmaps|escola municipal Jacareí - SP
37832a4423e2994c,Escola Municipal De Educação Infantil,,-23.301836,-45.933229,,,,,,Jardim de infância,,https://www.google.com/maps/place/Escola+Municipal+De+Educa%C3%A7%C3%A3o+Infantil/data=!4m7!3m6!1s0x94cdcaf83a813b8b:0xd2ea516d255f97ed!8m2!3d-23.301836!4d-45.933229!16s%2Fg%2F11cks2p_nl!19sChIJizuBOvjKzZQR7ZdfJW1R6tI?authuser=0&hl=pt-BR&rclk=1,scraper_gmaps|escola municipal Jacareí - SP
