place_id,nome,endereco,latitude,longitude,telefone,horario,website,avaliacao,total_reviews,categoria,status_negocio,google_maps_url,fonte
a2d90470055599a8,Academia Água Viva,,-23.2434794,-45.9083736,,,,"4,4",163,,,https://www.google.com/maps/place/Academia+%C3%81gua+Viva/data=!4m7!3m6!1s0x94cc355959f306bb:0xc7afa921f41c55a0!8m2!3d-23.2434794!4d-45.9083736!16s%2Fg%2F11bwy_wl23!19sChIJuwbzWVk1zJQRoFUc9CGpr8c?authuser=0&hl=pt-BR&rclk=1,scraper_gmaps|escolinhas de natação São José dos Campos - SP
6523c840eb455db4,Arena Sport Center,"· Av. Dep. Benedito Matarazzo, 7100",-23.2140423,-45.8954246,,,,"4,3",223,Campo de futebol,,https://www.google.com/maps/place/Arena+Sport+Center/data=!4m7!3m6!1s0x94cc4a7d69dbabc7:0x8ad25e4a704c16bd!8m2!3d-23.2140423!4d-45.8954246!16s%2Fg%2F11c1x411vb!19sChIJx6vbaX1KzJQRvRZMcEpe0oo?authuser=0&hl=pt-BR&rclk=1,scraper_gmaps|centros esportivos São José dos Campos - SP
0e4a1ab773e5bf58,Arena Sul Sports,,-23.2513669,-45.8921909,,,,"4,5",678,Quadra de esportes,,https://www.google.com/maps/place/Arena+Sul+Sports/data=!4m7!3m6!1s0x94cc4ab32a7f6091:0xf73e48fd7a3102fb!8m2!3d-23.2513669!4d-45.8921909!16s%2Fg%2F11g8z__2l8!19sChIJkWB_KrNKzJQR-wIxev1IPvc?authuser=0&hl=pt-BR&rclk=1,scraper_gmaps|centros esportivos São José dos Campos - SP
41a94dae86df701e,Avix Arena,"· Av. Dr. Nélson d'Ávila, 485",-23.1902286,-45.8854773,,,,"4,6",86,Quadra de esportes,,https://www.google.com/maps/place/Avix+Arena/data=!4m7!3m6!1s0x94cc4b5b36dc89cf:0xb1414b909274e397!8m2!3d-23.1902286!4d-45.8854773!16s%2Fg%2F11rsh51jys!19sChIJz4ncNltLzJQRl-N0kpBLQbE?authuser=0&hl=pt-BR&rclk=1,scraper_gmaps|centros esportivos São José dos Campos - SP
f7811e8137587227,Bellsub Esportes,"· Av. Anchieta, 1235",-23.1941255,-45.9053461,,,,"4,9",56,Loja de artigos para mergulho,,https://www.google.com/maps/place/Bellsub+Esportes/data=!4m7!3m6!1s0x94cc35f671a2ce41:0x7d95a3b04179af19!8m2!3d-23.1941255!4d-45.9053461!16s%2Fg%2F1pt_2g5sy!19sChIJQc6icfY1zJQRGa95QbCjlX0?authuser=0&hl=pt-BR&rclk=1,scraper_gmaps|centros esportivos São José dos Campos - SP
d1adc62424d0b496,Casa do Jovem,"Av. Olivo Gomes, 381 - Santana, São José dos Campos - SP, 12212-000, Brasil",-23.1687225,-45.8919981,+55 12 3922-4149,Mostrar horário de funcionamento da semana,,"4,6",46,Ginásio poliesportivo,Aberto · Fecha 20:30,https://www.google.com/maps/place/Casa+do+Jovem/data=!4m7!3m6!1s0x94cc49f100de74e1:0x1c0364a403956865!8m2!3d-23.1687225!4d-45.8919981!16s%2Fg%2F1q66247q_!19sChIJ4XTeAPFJzJQRZWiVA6RkAxw?authuser=0&hl=pt-BR&rclk=1,scraper_gmaps|centros esportivos São José dos Campos - SP
af439eb232659684,Centro Comunitário Alto Da Ponte,"· Rua Alzíro Lebrão, s /n",-23.1519796,-45.9000028,,,,"4,3",505,Prestador de serviços públicos,,https://www.google.com/maps/place/Centro+Comunit%C3%A1rio+Alto+Da+Ponte/data=!4m7!3m6!1s0x94cc49a5bfcd19b9:0xafd6e33f6febdc4c!8m2!3d-23.1519796!4d-45.9000028!16s%2Fg%2F11h5v6k314!19sChIJuRnNv6VJzJQRTNzrbz_j1q8?authuser=0&hl=pt-BR&rclk=1,scraper_gmaps|centros esportivos São José dos Campos - SP
82bcac4e53f00b07,Centro da Juventude Fuad Cury,,-23.2293123,-45.9005598,,,,"4,7",138,Parque,,https://www.google.com/maps/place/Centro+da+Juventude+Fuad+Cury/data=!4m7!3m6!1s0x94cc4a9c1558c037:0xd4714116f0ec9161!8m2!3d-23.2293123!4d-45.9005598!16s%2Fg%2F1ptxyjd12!19sChIJN8BYFZxKzJQRYZHs8BZBcdQ?authuser=0&hl=pt-BR&rclk=1,scraper_gmaps|centros esportivos São José dos Campos - SP
9df88d153e6c4fe7,Centro de Treinamento Prosport,"Av. Manuel Vieira, 4099 - Res. Uniao, São José dos Campos - SP, 12239-050, Brasil",-23.2625152,-45.911447,+55 12 98145-5939,Mostrar horário de funcionamento da semana,instagram.com.br,"4,5",45,Escola de esportes,Aberto · Fecha 23:00,https://www.google.com/maps/place/Centro+de+Treinamento+Prosport/data=!4m7!3m6!1s0x94cc354c41bab2a7:0x8041e7e0e5d6a289!8m2!3d-23.2625152!4d-45.911447!16s%2Fg%2F11btxcv7fw!19sChIJp7K6QUw1zJQRiaLW5eDnQYA?authuser=0&hl=pt-BR&rclk=1,scraper_gmaps|centros esportivos São José dos Campos - SP
7b953de89c1358f5,Centro Esportivo Alcides Teixeira (Jardim Da Granja),,-23.2053187,-45.8597234,,,,"4,7",9,Prestador de serviços públicos,,https://www.google.com/maps/place/Centro+Esportivo+Alcides+Teixeira+%28Jardim+Da+Granja%29/data=!4m7!3m6!1s0x94cc4bced5a80013:0xf21a8763deba283b!8m2!3d-23.2053187!4d-45.8597234!16s%2Fg%2F11fk3s17m8!19sChIJEwCo1c5LzJQROyi63mOHGvI?authuser=0&hl=pt-BR&rclk=1,scraper_gmaps|centros esportivos São José dos Campos - SP
b9bc2346526d7634,Centro Esportivo do Vale do Sol,"Praça Bahia de São Salvador, 342 - Jardim Vale do Sol, São José dos Campos - SP, 12238-090, Brasil",-23.2545604,-45.9112283,+55 12 3931-3256,Mostrar horário de funcionamento da semana,sjc.sp.gov.br,"4,7",47,Ginásio poliesportivo,Aberto · Fecha 22:00,https://www.google.com/maps/place/Centro+Esportivo+do+Vale+do+Sol/data=!4m7!3m6!1s0x94cc3553b4b11091:0x51892f54750550aa!8m2!3d-23.2545604!4d-45.9112283!16s%2Fg%2F11dzdwnh62!19sChIJkRCxtFM1zJQRqlAFdVQviVE?authuser=0&hl=pt-BR&rclk=1,scraper_gmaps|centros esportivos São José dos Campos - SP
0c00cc3a1606dd85,Centro Esportivo Palmeiras de São José,"R. Cidade de Bento Gonçalves, 254 - Palmeiras de São José, São José dos Campos - SP, 12237-832, Brasil",-23.2373136,-45.9132893,+55 12 3937-7151,Mostrar horário de funcionamento da semana,,"4,6",46,Quadra de esportes,Aberto · Fecha 21:00,https://www.google.com/maps/place/Centro+Esportivo+Palmeiras+de+S%C3%A3o+Jos%C3%A9/data=!4m7!3m6!1s0x94cc35688174a9bd:0xcc4e716368074be!8m2!3d-23.2373136!4d-45.9132893!16s%2Fg%2F11clytpn_5!19sChIJval0gWg1zJQRvnSANhbnxAw?authuser=0&hl=pt-BR&rclk=1,scraper_gmaps|centros esportivos São José dos Campos - SP
e0eb3b0f844332ef,Centro Esportivo Vila Letônia,"R. Roseira, 34 - Vila Letonia, São José dos Campos - SP, 12231-130, Brasil",-23.2108247,-45.8865419,+55 12 3923-8604,,,"4,7",47,Ginásio poliesportivo,,https://www.google.com/maps/place/Centro+Esportivo+Vila+Let%C3%B4nia/data=!4m7!3m6!1s0x94cc4b21e939d6f7:0xe103abe2d70618f9!8m2!3d-23.2108247!4d-45.8865419!16s%2Fg%2F11h5wbqy2c!19sChIJ99Y56SFLzJQR-RgG1-KrA-E?authuser=0&hl=pt-BR&rclk=1,scraper_gmaps|centros esportivos São José dos Campos - SP
e5f8a407ee589b98,Centro Esportivo Vila Tatetuba,"R. Arcil Moreno, 102 - Res. Tatetuba, São José dos Campos - SP, 12220-080, Brasil",-23.185525,-45.8611524,,Informações sobre horários de pico,sjc.sp.gov.br,,,Playground,,https://www.google.com/maps/place/Centro+Esportivo+Vila+Tatetuba/data=!4m7!3m6!1s0x94cc4be3b15f0bab:0x45ef7397884eea2e!8m2!3d-23.185525!4d-45.8611524!16s%2Fg%2F11rz2fh6kl!19sChIJqwtfseNLzJQRLupOiJdz70U?authuser=0&hl=pt-BR&rclk=1,scraper_gmaps|centros esportivos São José dos Campos - SP
61ef612b0e27e26f,Centro Poliesportivo José Carlos das Neves,"Av. Vinte e Três de Dezembro, 400 - Jardim das Cerejeiras, São José dos Campos - SP, 12225-480, Brasil",-23.1927042,-45.7914374,+55 12 3907-6739,Mostrar horário de funcionamento da semana,sjc.sp.gov.br,"4,3",43,Ginásio poliesportivo,Aberto · Fecha 22:00,https://www.google.com/maps/place/Centro+Poliesportivo+Jos%C3%A9+Carlos+das+Neves/data=!4m7!3m6!1s0x94cc4ce2034f71a5:0x681edd18bdbbdf45!8m2!3d-23.1927042!4d-45.7914374!16s%2Fg%2F1q64qy6hm!19sChIJpXFPA-JMzJQRRd-7vRjdHmg?authuser=0&hl=pt-BR&rclk=1,scraper_gmaps|centros esportivos São José dos Campos - SP
98142cdda9f8a8db,Centro Poliesportivo Tesouro,,-23.174496,-45.8456834,,,,"4,6",135,Clube,,https://www.google.com/maps/place/Centro+Poliesportivo+Tesouro/data=!4m7!3m6!1s0x94cc4bea1568b92f:0x18a17c9f60af76e5!8m2!3d-23.174496!4d-45.8456834!16s%2Fg%2F1yfj5sg0j!19sChIJL7loFepLzJQR5XavYJ98oRg?authuser=0&hl=pt-BR&rclk=1,scraper_gmaps|centros esportivos São José dos Campos - SP
a6dab169dc594219,Chute Inicial Corinthians São José dos Campos - Centro,"· Av. Nove de Julho, 23",-23.192683,-45.8929078,,,,"4,8",156,Treino de futebol,,https://www.google.com/maps/place/Chute+Inicial+Corinthians+S%C3%A3o+Jos%C3%A9+dos+Campos+-+Centro/data=!4m7!3m6!1s0x94cc4b124ec0ff89:0x239b202f892dc29e!8m2!3d-23.192683!4d-45.8929078!16s%2Fg%2F11spxv6dcj!19sChIJif_AThJLzJQRnsItiS8gmyM?authuser=0&hl=pt-BR&rclk=1,scraper_gmaps|centros esportivos São José dos Campos - SP
1f815e3bdd783d97,Cidade Sports,,-23.1947595,-45.8594619,,,,"4,8",12,Quadra de esportes,,https://www.google.com/maps/place/Cidade+Sports/data=!4m7!3m6!1s0x94cc4bae59dcd46d:0xb32e5a30c3fb73c9!8m2!3d-23.1947595!4d-45.8594619!16s%2Fg%2F11cn5qq3pm!19sChIJbdTcWa5LzJQRyXP7wzBaLrM?authuser=0&hl=pt-BR&rclk=1,scraper_gmaps|centros esportivos São José dos Campos - SP
2462b561074e8899,Clique Esporte Loja de Materiais Esportivos,,-23.1801655,-45.8848138,,,,"4,9",81,Loja de artigos esportivos,,https://www.google.com/maps/place/Clique+Esporte+Loja+de+Materiais+Esportivos/data=!4m7!3m6!1s0x94cc4bcc49510bff:0xf43e957aae2c35c!8m2!3d-23.1801655!4d-45.8848138!16s%2Fg%2F11xsbdhz3z!19sChIJ_wtRScxLzJQRXMPiqlfpQw8?authuser=0&hl=pt-BR&rclk=1,scraper_gmaps|centros esportivos São José dos Campos - SP
98536f3e10536afb,Clínica Centro de Fisioterapia e Esporte | Pilates | Funcional | Fisioterapia São José dos Campos,,-23.2038123,-45.9017096,,,,"5,0",64,Estúdio de pilates,,https://www.google.com/maps/place/Cl%C3%ADnica+Centro+de+Fisioterapia+e+Esporte+%7C+Pilates+%7C+Funcional+%7C+Fisioterapia+S%C3%A3o+Jos%C3%A9+dos+Campos/data=!4m7!3m6!1s0x94cc4a763a790a11:0x67a988689766a38e!8m2!3d-23.2038123!4d-45.9017096!16s%2Fg%2F11g_m_ptg!19sChIJEQp5OnZKzJQRjqNml2iIqWc?authuser=0&hl=pt-BR&rclk=1,scraper_gmaps|centros esportivos São José dos Campos - SP
182f36f2a9266de7,Condominio Residencial Valencia,"· Av. Cidade Jardim, 2680",-23.2370633,-45.8809877,,,,"4,4",55,Complexo de condomínio,,https://www.google.com/maps/place/Condominio+Residencial+Valencia/data=!4m7!3m6!1s0x94cc4ac613de7d25:0x70ed2c96b6b358e4!8m2!3d-23.2370633!4d-45.8809877!16s%2Fg%2F11c4ckg5_4!19sChIJJX3eE8ZKzJQR5FiztpYs7XA?authuser=0&hl=pt-BR&rclk=1,scraper_gmaps|condomínios residenciais São José dos Campos - SP
0dcc066cb2e8bc62,Condomínio Alphaville 2 São José dos Campos,,-23.1854151,-45.9431898,,,,"4,6",470,Complexo de condomínio,,https://www.google.com/maps/place/Condom%C3%ADnio+Alphaville+2+S%C3%A3o+Jos%C3%A9+dos+Campos/data=!4m7!3m6!1s0x94cc3687944caf89:0xb4556aaa5d743a12!8m2!3d-23.1854151!4d-45.9431898!16s%2Fg%2F11c3tr8kql!19sChIJia9MlIc2zJQREjp0XapqVbQ?authuser=0&hl=pt-BR&rclk=1,scraper_gmaps|condomínios residenciais São José dos Campos - SP
83539c9b25cbb33f,Condomínio Floradas São José,"· Av. Cidade Jardim, 714",-23.219848,-45.886258,,,,"4,9",43,Complexo de condomínio,,https://www.google.com/maps/place/Condom%C3%ADnio+Floradas+S%C3%A3o+Jos%C3%A9/data=!4m7!3m6!1s0x94cc4a8d419e915d:0x52694053f36b4c58!8m2!3d-23.219848!4d-45.886258!16s%2Fg%2F11bzwn91k6!19sChIJXZGeQY1KzJQRWExr81NAaVI?authuser=0&hl=pt-BR&rclk=1,scraper_gmaps|condomínios residenciais São José dos Campos - SP
8e99a184e12ac595,Condomínio Monte Carlo,· Av. José Pinto Ferreira,-23.1846565,-45.9567373,,,,"4,6",188,Complexo de condomínio,,https://www.google.com/maps/place/Condom%C3%ADnio+Monte+Carlo/data=!4m7!3m6!1s0x94cc3696a64ad3d3:0x9c7b0c1c80576691!8m2!3d-23.1846565!4d-45.9567373!16s%2Fg%2F11c1s8mh73!19sChIJ09NKppY2zJQRkWZXgBwMe5w?authuser=0&hl=pt-BR&rclk=1,scraper_gmaps|condomínios residenciais São José dos Campos - SP
b1e390a97add9b39,Condomínio Reserva Rudá,"· Av. Robson Custódio Machado, 70",-23.2283344,-45.8271053,,,,"4,7",139,Complexo de condomínio,,https://www.google.com/maps/place/Condom%C3%ADnio+Reserva+Rud%C3%A1/data=!4m7!3m6!1s0x94cc4d8a6fa59df5:0xc4bc52efd52e2f75!8m2!3d-23.2283344!4d-45.8271053!16s%2Fg%2F11jkt0q4sw!19sChIJ9Z2lb4pNzJQRdS8u1e9SvMQ?authuser=0&hl=pt-BR&rclk=1,scraper_gmaps|condomínios residenciais São José dos Campos - SP
e501d37d3ec40f98,Condomínio Residencial Alameda dos Pássaros,,-23.2328043,-45.8940802,,,,"4,3",187,Complexo de condomínio,,https://www.google.com/maps/place/Condom%C3%ADnio+Residencial+Alameda+dos+P%C3%A1ssaros/data=!4m7!3m6!1s0x94cc4a9781ab3a01:0x1ad461539260ec0e!8m2!3d-23.2328043!4d-45.8940802!16s%2Fg%2F1tmz80_k!19sChIJATqrgZdKzJQRDuxgklNh1Bo?authuser=0&hl=pt-BR&rclk=1,scraper_gmaps|condomínios residenciais São José dos Campos - SP
cb3e6d04c63c0b45,Condomínio Residencial Carolina,,-23.2206899,-45.8945928,,,,"4,4",52,Complexo de condomínio,,https://www.google.com/maps/place/Condom%C3%ADnio+Residencial+Carolina/data=!4m7!3m6!1s0x94cc4a8f63867f3b:0x59ca8340dec8fac3!8m2!3d-23.2206899!4d-45.8945928!16s%2Fg%2F11c58s96zj!19sChIJO3-GY49KzJQRw_rI3kCDylk?authuser=0&hl=pt-BR&rclk=1,scraper_gmaps|condomínios residenciais São José dos Campos - SP
df3b0a01a54abc55,Condomínio Residencial dos Pinhais,"· R. Ângelo Bravini, 260",-23.2469623,-45.8955219,,,,"4,4",38,Complexo de condomínio,,https://www.google.com/maps/place/Condom%C3%ADnio+Residencial+dos+Pinhais/data=!4m7!3m6!1s0x94cc4aae15f102b7:0xfaf431b6dce4be3d!8m2!3d-23.2469623!4d-45.8955219!16s%2Fg%2F11g7yw2x82!19sChIJtwLxFa5KzJQRPb7k3LYx9Po?authuser=0&hl=pt-BR&rclk=1,scraper_gmaps|condomínios residenciais São José dos Campos - SP
70b7f4a373e14bcb,Condomínio Residencial Fatto Acqua,,-23.1738967,-45.8467602,,,,"4,5",246,Complexo de condomínio,,https://www.google.com/maps/place/Condom%C3%ADnio+Residencial+Fatto+Acqua/data=!4m7!3m6!1s0x94cc4b9a197995e3:0xa29e33b359a100c1!8m2!3d-23.1738967!4d-45.8467602!16s%2Fg%2F11j002tgfd!19sChIJ45V5GZpLzJQRwQChWbMznqI?authuser=0&hl=pt-BR&rclk=1,scraper_gmaps|condomínios residenciais São José dos Campos - SP
2a34ddc44ff663f3,Condomínio Residencial Golden Park,,-23.1948211,-45.8806641,,,,"4,4",113,Complexo de condomínio,,https://www.google.com/maps/place/Condom%C3%ADnio+Residencial+Golden+Park/data=!4m7!3m6!1s0x94cc4a414e34c65f:0xda71a5d883551a5c!8m2!3d-23.1948211!4d-45.8806641!16s%2Fg%2F1tf9zjng!19sChIJX8Y0TkFKzJQRXBpVg9ilcdo?authuser=0&hl=pt-BR&rclk=1,scraper_gmaps|condomínios residenciais São José dos Campos - SP
c70d28f5e871bb27,Condomínio Residencial Harmonia,,-23.2422111,-45.8931202,,,,"4,3",92,Complexo de condomínio,,https://www.google.com/maps/place/Condom%C3%ADnio+Residencial+Harmonia/data=!4m7!3m6!1s0x94cc4abaa2259e3b:0x17e1fdc173d3d3da!8m2!3d-23.2422111!4d-45.8931202!16s%2Fg%2F1ptzb17j1!19sChIJO54lorpKzJQR2tPTc8H94Rc?authuser=0&hl=pt-BR&rclk=1,scraper_gmaps|condomínios residenciais São José dos Campos - SP
766ad006c96a312b,Condomínio Residencial JK,"· Av. Pedro Friggi, 2600",-23.1749022,-45.8148427,,,,"4,1",291,Complexo de condomínio,,https://www.google.com/maps/place/Condom%C3%ADnio+Residencial+JK/data=!4m7!3m6!1s0x94cc4c6f205b1be3:0x505385ab028bb829!8m2!3d-23.1749022!4d-45.8148427!16s%2Fg%2F11bxg310w0!19sChIJ4xtbIG9MzJQRKbiLAquFU1A?authuser=0&hl=pt-BR&rclk=1,scraper_gmaps|condomínios residenciais São José dos Campos - SP
c8ec68a38d75ba30,Condomínio Residencial Mediterrâneo,,-23.2008365,-45.9082815,,,,"4,5",181,Complexo de condomínio,,https://www.google.com/maps/place/Condom%C3%ADnio+Residencial+Mediterr%C3%A2neo/data=!4m7!3m6!1s0x94cc358b505b7fb7:0x419dac602830e965!8m2!3d-23.2008365!4d-45.9082815!16s%2Fg%2F1ptx1nb_m!19sChIJt39bUIs1zJQRZekwKGCsnUE?authuser=0&hl=pt-BR&rclk=1,scraper_gmaps|condomínios residenciais São José dos Campos - SP
da55fae92203b7a9,Condomínio Residencial Parque da Cidade,"· Av. Olivo Gomes, 695",-23.1656722,-45.8930861,,,,"4,6",67,Complexo de condomínio,,https://www.google.com/maps/place/Condom%C3%ADnio+Residencial+Parque+da+Cidade/data=!4m7!3m6!1s0x94cc49efc40fc041:0xe88a3fd0f32a4ec3!8m2!3d-23.1656722!4d-45.8930861!16s%2Fg%2F11c58qpqvw!19sChIJQcAPxO9JzJQRw04q89A_iug?authuser=0&hl=pt-BR&rclk=1,scraper_gmaps|condomínios residenciais São José dos Campos - SP
d3c841e9f62733f2,Condomínio Residencial Sevilha,"· Av. Cidade Jardim, 2620",-23.2365931,-45.8810225,,,,"4,6",105,Complexo de condomínio,,https://www.google.com/maps/place/Condom%C3%ADnio+Residencial+Sevilha/data=!4m7!3m6!1s0x94cc4ac6d56826a5:0x69a4a812716bf23e!8m2!3d-23.2365931!4d-45.8810225!16s%2Fg%2F1thq1tzz!19sChIJpSZo1cZKzJQRPvJrcRKopGk?authuser=0&hl=pt-BR&rclk=1,scraper_gmaps|condomínios residenciais São José dos Campos - SP
f0c5df2b962cc376,Condomínio Residencial SIGMA,,-23.2314403,-45.8963432,,,,"4,6",30,Complexo de condomínio,,https://www.google.com/maps/place/Condom%C3%ADnio+Residencial+SIGMA/data=!4m7!3m6!1s0x94cc4a99ac4b197d:0x289a7f6fa0ccce22!8m2!3d-23.2314403!4d-45.8963432!16s%2Fg%2F11c2njv1g5!19sChIJfRlLrJlKzJQRIs7MoG9_mig?authuser=0&hl=pt-BR&rclk=1,scraper_gmaps|condomínios residenciais São José dos Campos - SP
04b3e0b92ebf9b27,Condomínio Residencial Terra Nova São José dos Campos I,,-23.1546254,-45.803412,,,,"4,5",758,Complexo de condomínio,,https://www.google.com/maps/place/Condom%C3%ADnio+Residencial+Terra+Nova+S%C3%A3o+Jos%C3%A9+dos+Campos+I/data=!4m7!3m6!1s0x94cc4c24846bfc4f:0x728e63891ec0dd20!8m2!3d-23.1546254!4d-45.803412!16s%2Fg%2F1pycx32t_!19sChIJT_xrhCRMzJQRIN3AHoljjnI?authuser=0&hl=pt-BR&rclk=1,scraper_gmaps|condomínios residenciais São José dos Campos - SP
5ff9a9ac77b99a4e,Condomínio Rossi Montês,,-23.1794757,-45.864149,,,,"4,4",458,Complexo de condomínio,,https://www.google.com/maps/place/Condom%C3%ADnio+Rossi+Mont%C3%AAs/data=!4m7!3m6!1s0x94cc4bcc904b3a87:0x2678297b9a24f080!8m2!3d-23.1794757!4d-45.864149!16s%2Fg%2F11ckxypkks!19sChIJhzpLkMxLzJQRgPAkmnspeCY?authuser=0&hl=pt-BR&rclk=1,scraper_gmaps|condomínios residenciais São José dos Campos - SP
76881488a123f464,Condomínio Verana São José dos Campos,,-23.2296424,-45.8448559,,,,"4,7",274,Complexo de condomínio,,https://www.google.com/maps/place/Condom%C3%ADnio+Verana+S%C3%A3o+Jos%C3%A9+dos+Campos/data=!4m7!3m6!1s0x94cc4b49eca303ad:0xfd5c6e116cb43312!8m2!3d-23.2296424!4d-45.8448559!16s%2Fg%2F11ckvfp45f!19sChIJrQOj7ElLzJQREjO0bBFuXP0?authuser=0&hl=pt-BR&rclk=1,scraper_gmaps|condomínios residenciais São José dos Campos - SP
39d4bb5d4898ac97,Escola de Natação Leão Marinho,,-23.2029496,-45.8951868,,,,"4,3",116,Escola de natação,,https://www.google.com/maps/place/Escola+de+Nata%C3%A7%C3%A3o+Le%C3%A3o+Marinho/data=!4m7!3m6!1s0x94cc4a703241ae3b:0x4192d20864af669e!8m2!3d-23.2029496!4d-45.8951868!16s%2Fg%2F11bwmrj1yy!19sChIJO65BMnBKzJQRnmavZAjSkkE?authuser=0&hl=pt-BR&rclk=1,scraper_gmaps|escolinhas de natação São José dos Campos - SP
0f44050287d4b991,Escola Modelo de Natação,,-23.241053,-45.886889,,,,"4,6",86,Escola de natação,,https://www.google.com/maps/place/Escola+Modelo+de+Nata%C3%A7%C3%A3o/data=!4m7!3m6!1s0x94cc4ab79c1b6e8d:0xc3008109adc6f194!8m2!3d-23.241053!4d-45.886889!16s%2Fg%2F1v2yzzvr!19sChIJjW4bnLdKzJQRlPHGrQmBAMM?authuser=0&hl=pt-BR&rclk=1,scraper_gmaps|escolinhas de natação São José dos Campos - SP
0cb52a6709d22f18,ESPORTE VALLE Materiais Esportivos,,-23.2246642,-45.9185426,,,,"4,9",130,Loja de artigos esportivos,,https://www.google.com/maps/place/ESPORTE+VALLE+Materiais+Esportivos/data=!4m7!3m6!1s0x94cc3575d6e843c1:0xa95b73932e53b1cb!8m2!3d-23.2246642!4d-45.9185426!16s%2Fg%2F11c531npw9!19sChIJwUPo1nU1zJQRy7FTLpNzW6k?authuser=0&hl=pt-BR&rclk=1,scraper_gmaps|centros esportivos São José dos Campos - SP
7ca53b06cc94939d,Ginásio De Esportes Dom Pedro 1º,"· Rua Helenira Resende de Sousa Nazareth, 151",-23.2762859,-45.8929664,,,,"4,5",84,Ginásio poliesportivo,,https://www.google.com/maps/place/Gin%C3%A1sio+De+Esportes+Dom+Pedro+1%C2%BA/data=!4m7!3m6!1s0x94cdb52682738aa9:0x5a0971bd3059b62!8m2!3d-23.2762859!4d-45.8929664!16s%2Fg%2F11h5v8xbfy!19sChIJqYpzgia1zZQRYpsF0xuXoAU?authuser=0&hl=pt-BR&rclk=1,scraper_gmaps|centros esportivos São José dos Campos - SP
20106d6360b539d0,Ginásio de Esportes Tênis Clube São José,,-23.1923647,-45.8921741,,,,,,Ginásio poliesportivo,,https://www.google.com/maps/place/Gin%C3%A1sio+de+Esportes+T%C3%AAnis+Clube+S%C3%A3o+Jos%C3%A9/data=!4m7!3m6!1s0x94cc4b000c1d362f:0x4ce8e02d3abed3ba!8m2!3d-23.1923647!4d-45.8921741!16s%2Fg%2F11z5vbxvh4!19sChIJLzYdDABLzJQRutO-Oi3g6Ew?authuser=0&hl=pt-BR&rclk=1,scraper_gmaps|centros esportivos São José dos Campos - SP
f6340f208df4396c,Ginásio De Esportes Vila Maria,,-23.177459,-45.878866,,,,"4,4",112,Ginásio poliesportivo,,https://www.google.com/maps/place/Gin%C3%A1sio+De+Esportes+Vila+Maria/data=!4m7!3m6!1s0x94cc4bb64030b741:0x5f951b3911a1acc!8m2!3d-23.177459!4d-45.878866!16s%2Fg%2F11h5v68xfj!19sChIJQbcwQLZLzJQRzBoakbNR-QU?authuser=0&hl=pt-BR&rclk=1,scraper_gmaps|centros esportivos São José dos Campos - SP
998a331c04d1090a,Ginásio Linneu de Moura,"Tv. Maj. Cesar Leite, 20 - Centro, São José dos Campos - SP, 12245-800, Brasil",-23.1901337,-45.8865026,+55 12 3921-8669,Mostrar horário de funcionamento da semana,aesj.com.br,"4,5",45,Ginásio poliesportivo,Aberto · Fecha 22:00,https://www.google.com/maps/place/Gin%C3%A1sio+Linneu+de+Moura/data=!4m7!3m6!1s0x94cc4a15a6dec46d:0x240d7b6675e0f186!8m2!3d-23.1901337!4d-45.8865026!16s%2Fg%2F11bbrjvfx6!19sChIJbcTephVKzJQRhvHgdWZ7DSQ?authuser=0&hl=pt-BR&rclk=1,scraper_gmaps|centros esportivos São José dos Campos - SP
22783c0fd05f2ce4,"Loja Atlética Esportes: Moda Fitness, Ballet, Natação, Artes Marciais, Futebol, Beach Tennis e Acessórios para Academia",,-23.182691,-45.8858474,,,,"4,1",51,Loja de roupas esportivas,,"https://www.google.com/maps/place/Loja+Atl%C3%A9tica+Esportes:+Moda+Fitness,+Ballet,+Nata%C3%A7%C3%A3o,+Artes+Marciais,+Futebol,+Beach+Tennis+e+Acess%C3%B3rios+para+Academia/data=!4m7!3m6!1s0x94cc4a186ba65c11:0xb24a2485cc31772f!8m2!3d-23.182691!4d-45.8858474!16s%2Fg%2F1ptwd7749!19sChIJEVymaxhKzJQRL3cxzIUkSrI?authuser=0&hl=pt-BR&rclk=1",scraper_gmaps|centros esportivos São José dos Campos - SP
ae73068dba0ed371,Museu de Esportes | SJC,Memória esportiva de São José dos Campos,-23.1795407,-45.8593702,,,,"4,4",130,Museu histórico,,https://www.google.com/maps/place/Museu+de+Esportes+%7C+SJC/data=!4m7!3m6!1s0x94cc4a17962328e1:0x9f55098398119f3c!8m2!3d-23.1795407!4d-45.8593702!16s%2Fg%2F11cn2_b5wj!19sChIJ4SgjlhdKzJQRPJ8RmIMJVZ8?authuser=0&hl=pt-BR&rclk=1,scraper_gmaps|centros esportivos São José dos Campos - SP
79e968dd6ff61655,NaturaPark Condomínio Clube,"· Rua José Polli, 191",-23.1760684,-45.859716,,,,"4,5",222,Complexo de condomínio,,https://www.google.com/maps/place/NaturaPark+Condom%C3%ADnio+Clube/data=!4m7!3m6!1s0x94cc4bce58d2ad27:0x45d17abf217a0b80!8m2!3d-23.1760684!4d-45.859716!16s%2Fg%2F11cjp8r57l!19sChIJJ63SWM5LzJQRgAt6Ib960UU?authuser=0&hl=pt-BR&rclk=1,scraper_gmaps|condomínios residenciais São José dos Campos - SP
229ed71e6bc6e5ee,Pingo D'agua Escola de Natação,"· Av. Rui Barbosa, 133",-23.1778747,-45.8891908,,,,"4,3",63,Instrutor de natação,,https://www.google.com/maps/place/Pingo+D%27agua+Escola+de+Nata%C3%A7%C3%A3o/data=!4m7!3m6!1s0x94cc4a1e915b03ab:0x608eda5b8a0bb453!8m2!3d-23.1778747!4d-45.8891908!16s%2Fg%2F11bbrlp899!19sChIJqwNbkR5KzJQRU7QLilvajmA?authuser=0&hl=pt-BR&rclk=1,scraper_gmaps|escolinhas de natação São José dos Campos - SP
c250e8fb948203fd,Poliesportivo Altos De Santana,"· Av. Alto do Rio Doce, 809",-23.168545,-45.9114579,,,,"4,5",610,Ginásio poliesportivo,,https://www.google.com/maps/place/Poliesportivo+Altos+De+Santana/data=!4m7!3m6!1s0x94cc361bd50d81c3:0x9d139a6dcf502711!8m2!3d-23.168545!4d-45.9114579!16s%2Fg%2F1ptvyqg15!19sChIJw4EN1Rs2zJQRESdQz22aE50?authuser=0&hl=pt-BR&rclk=1,scraper_gmaps|centros esportivos São José dos Campos - SP
c950d81d4999beee,Poliesportivo Campo Dos Alemães,"Rua Valter Dellú, s/n - Campo dos Alemães, São José dos Campos - SP, 12239-170, Brasil",-23.2705364,-45.9023918,+55 12 3903-1936,Mostrar horário de funcionamento da semana,,"4,4",44,Centro de recreação,Aberto · Fecha 22:00,https://www.google.com/maps/place/Poliesportivo+Campo+Dos+Alem%C3%A3es/data=!4m7!3m6!1s0x94cdb55ebe02749b:0x1f75cc868905e2e7!8m2!3d-23.2705364!4d-45.9023918!16s%2Fg%2F11cr_ny0yk!19sChIJm3QCvl61zZQR5-IFiYbMdR8?authuser=0&hl=pt-BR&rclk=1,scraper_gmaps|centros esportivos São José dos Campos - SP
2c25a7a1d591b5dc,Poliesportivo João Do Pulo,"Av. Perseu, 180 - Jardim Satélite, São José dos Campos - SP, 12230-000, Brasil",-23.225081,-45.8895435,+55 12 3931-6539,Mostrar horário de funcionamento da semana,sjc.sp.gov.br,"4,6",46,Ginásio poliesportivo,Aberto · Fecha 22:00,https://www.google.com/maps/place/Poliesportivo+Jo%C3%A3o+Do+Pulo/data=!4m7!3m6!1s0x94cc4a93d97cd183:0x20fe4a1028e13964!8m2!3d-23.225081!4d-45.8895435!16s%2Fg%2F1q67qm2vn!19sChIJg9F82ZNKzJQRZDnhKBBK_iA?authuser=0&hl=pt-BR&rclk=1,scraper_gmaps|centros esportivos São José dos Campos - SP
dfc651d35b19a709,Poliesportivo São Judas Tadeu,"· Rua - Av. São Jerônimo, 706",-23.2530072,-45.8323359,,,,"4,1",803,Ginásio poliesportivo,,https://www.google.com/maps/place/Poliesportivo+S%C3%A3o+Judas+Tadeu/data=!4m7!3m6!1s0x94cdb49e9e10e521:0xaeac4f7ec666da69!8m2!3d-23.2530072!4d-45.8323359!16s%2Fg%2F1pyqlchlv!19sChIJIeUQnp60zZQRadpmxn5PrK4?authuser=0&hl=pt-BR&rclk=1,scraper_gmaps|centros esportivos São José dos Campos - SP
88a497ed1d75287e,Praça de Esportes Doutor Pedro Otávio,,-23.2355975,-45.9055254,,,,"4,6",299,Local para práticas esportivas,,https://www.google.com/maps/place/Pra%C3%A7a+de+Esportes+Doutor+Pedro+Ot%C3%A1vio/data=!4m7!3m6!1s0x94cc35605b253d23:0xe6c363b8fc93b050!8m2!3d-23.2355975!4d-45.9055254!16s%2Fg%2F1z44rw4zp!19sChIJIz0lW2A1zJQRULCT_Lhjw-Y?authuser=0&hl=pt-BR&rclk=1,scraper_gmaps|centros esportivos São José dos Campos - SP
6226c6cea66396e1,Residencial Araçá,"· Av. dos Resedás, 201",-23.246297,-45.8237651,,,,"4,7",62,Complexo de condomínio,,https://www.google.com/maps/place/Residencial+Ara%C3%A7%C3%A1/data=!4m7!3m6!1s0x94cdb30028912c51:0xe98315858e487d2c!8m2!3d-23.246297!4d-45.8237651!16s%2Fg%2F11h_6x7jgf!19sChIJUSyRKACzzZQRLH1IjoUVg-k?authuser=0&hl=pt-BR&rclk=1,scraper_gmaps|condomínios residenciais São José dos Campos - SP
b084d7095c8b48eb,Residencial Jaguary,"Av. Aquarela do Brasil - Urbanova, São José dos Campos - SP, 12244-625, Brasil",-23.18822,-45.961776,+55 12 97404-3850,Mostrar horário de funcionamento da semana,veceurbanismo.com.br,"4,6",46,Loteamento de terrenos,Aberto · Fecha 18:00,https://www.google.com/maps/place/Residencial+Jaguary/data=!4m7!3m6!1s0x94cc36968b7782e9:0x26109dd9bf6ecea9!8m2!3d-23.18822!4d-45.961776!16s%2Fg%2F11bzt9kl67!19sChIJ6YJ3i5Y2zJQRqc5uv9mdECY?authuser=0&hl=pt-BR&rclk=1,scraper_gmaps|condomínios residenciais São José dos Campos - SP
f57841d503fa8b44,Residencial Mantiqueira,"Av. Águas de Prata - São José dos Campos, SP, 12213, Brasil",-23.1379185,-45.9126119,+55 12 3901-7284,Mostrar horário de funcionamento da semana,,"4,5",45,Complexo de condomínio,Aberto · Fecha 18:00,https://www.google.com/maps/place/Residencial+Mantiqueira/data=!4m7!3m6!1s0x94cc37cf96264fcd:0xdcca2749bb79f841!8m2!3d-23.1379185!4d-45.9126119!16s%2Fg%2F11clfz_bh5!19sChIJzU8mls83zJQRQfh5u0knytw?authuser=0&hl=pt-BR&rclk=1,scraper_gmaps|condomínios residenciais São José dos Campos - SP
eaeed29c6f64ef5d,Residencial Planalto,,-23.184418,-45.8621448,,,,"4,7",44,Complexo de condomínio,,https://www.google.com/maps/place/Residencial+Planalto/data=!4m7!3m6!1s0x94cc4bb5f3e871ad:0x2cb0ccacee7a8f2f!8m2!3d-23.184418!4d-45.8621448!16s%2Fg%2F11ddxbvz1r!19sChIJrXHo87VLzJQRL4967qzMsCw?authuser=0&hl=pt-BR&rclk=1,scraper_gmaps|condomínios residenciais São José dos Campos - SP
649236718c463a4d,Residencial Vale das Flores,"· Av. João Batista de Souza Soares, 2321",-23.2408944,-45.9054409,,,,"4,5",174,Complexo de condomínio,,https://www.google.com/maps/place/Residencial+Vale+das+Flores/data=!4m7!3m6!1s0x94cc355f267fa8ef:0x2a293b4468e7e777!8m2!3d-23.2408944!4d-45.9054409!16s%2Fg%2F11cm06lsmj!19sChIJ76h_Jl81zJQRd-fnaEQ7KSo?authuser=0&hl=pt-BR&rclk=1,scraper_gmaps|condomínios residenciais São José dos Campos - SP
35021145a9c42fcf,Secretaria de Esporte e Qualidade de vida,"R. Aurora Pinto da Cunha, 131 - Jardim America, São José dos Campos - SP, 12225-100, Brasil",-23.228613,-45.9003864,+55 12 3932-8600,Mostrar horário de funcionamento da semana,sjc.sp.gov.br,"4,8",48,Prestador de serviços públicos,Aberto · Fecha 17:30,https://www.google.com/maps/place/Secretaria+de+Esporte+e+Qualidade+de+vida/data=!4m7!3m6!1s0x94cc4b91a765a2d5:0xea4611558a8a2ca3!8m2!3d-23.228613!4d-45.9003864!16s%2Fg%2F11fk3s8xg5!19sChIJ1aJlp5FLzJQRoyyKilURRuo?authuser=0&hl=pt-BR&rclk=1,scraper_gmaps|centros esportivos São José dos Campos - SP
2efbb9a93cfee508,São José Desportivo,"· Av. Tívoli, 128",-23.206011,-45.8889945,,,,"4,7",35,Organização não governamental,,https://www.google.com/maps/place/S%C3%A3o+Jos%C3%A9+Desportivo/data=!4m7!3m6!1s0x94cc4a66910f6821:0x9164399ea629da4f!8m2!3d-23.206011!4d-45.8889945!16s%2Fg%2F11g6b49q7h!19sChIJIWgPkWZKzJQRT9oppp45ZJE?authuser=0&hl=pt-BR&rclk=1,scraper_gmaps|centros esportivos São José dos Campos - SP
c92e386002a8826f,Tribais Centro de Treinamento,"· R. Prof. Felício Savastano, 204",-23.1820943,-45.859609,,,,"5,0",15,Escola de esportes,,https://www.google.com/maps/place/Tribais+Centro+de+Treinamento/data=!4m7!3m6!1s0x94cc4bcc3d90e8ad:0x5a448d4075f7905c!8m2!3d-23.1820943!4d-45.859609!16s%2Fg%2F11vrcpnl9y!19sChIJreiQPcxLzJQRXJD3dUCNRFo?authuser=0&hl=pt-BR&rclk=1,scraper_gmaps|centros esportivos São José dos Campos - SP
fe139e6faf06e197,Tênis Clube São José,"· Av. Nove de Julho, 23",-23.192728,-45.892854,,,,"4,3",617,Tênis Clube,,https://www.google.com/maps/place/T%C3%AAnis+Clube+S%C3%A3o+Jos%C3%A9/data=!4m7!3m6!1s0x94cc4a1250b468ab:0xd6ab1457f1943107!8m2!3d-23.192728!4d-45.892854!16zL20vMGJtcnp6!19sChIJq2i0UBJKzJQRBzGU8VcUq9Y?authuser=0&hl=pt-BR&rclk=1,scraper_gmaps|centros esportivos São José dos Campos - SP
