place_id,nome,endereco,latitude,longitude,telefone,horario,website,avaliacao,total_reviews,categoria,status_negocio,google_maps_url,fonte
fe139e6faf06e197,Tênis Clube São José,"· Av. Nove de Julho, 23",-23.192728,-45.892854,,,,"4,3",617,Tênis Clube,,https://www.google.com/maps/place/T%C3%AAnis+Clube+S%C3%A3o+Jos%C3%A9/data=!4m7!3m6!1s0x94cc4a1250b468ab:0xd6ab1457f1943107!8m2!3d-23.192728!4d-45.892854!16zL20vMGJtcnp6!19sChIJq2i0UBJKzJQRBzGU8VcUq9Y?authuser=0&hl=pt-BR&rclk=1,scraper_gmaps|clube São José dos Campos - SP|clube de campo São José dos Campos - SP|clube recreativo São José dos Campos - SP
beb7010247f26705,Clube de Campo Santa Rita AESJ,,-23.19104,-45.9220527,,,,"4,6",1701,Clube,,https://www.google.com/maps/place/Clube+de+Campo+Santa+Rita+AESJ/data=!4m7!3m6!1s0x94cc35e74d5bb5f3:0xbe8ba65dcd72436d!8m2!3d-23.19104!4d-45.9220527!16s%2Fg%2F1yfjb5dkq!19sChIJ87VbTec1zJQRbUNyzV2mi74?authuser=0&hl=pt-BR&rclk=1,scraper_gmaps|clube São José dos Campos - SP|clube de campo São José dos Campos - SP|clube recreativo São José dos Campos - SP|clube social São José dos Campos - SP|associação recreativa São José dos Campos - SP
6159f975cde6beed,Johnson Clube,"· Av. Dr. Sebastião Henrique da Cunha Pontes, 1400",-23.248119,-45.9310677,,,,"4,6",814,Associação / organização,,https://www.google.com/maps/place/Johnson+Clube/data=!4m7!3m6!1s0x94cc4a62619022cd:0x7a22ad7ea8e7b545!8m2!3d-23.248119!4d-45.9310677!16s%2Fg%2F11b6hkm9tg!19sChIJzSKQYWJKzJQRRbXnqH6tIno?authuser=0&hl=pt-BR&rclk=1,scraper_gmaps|clube São José dos Campos - SP|clube de campo São José dos Campos - SP
5372c9fee0497275,Clube de Campo Luso Brasileiro - São Jose Dos Campos,,-23.1248056,-45.8653574,,,,"4,3",805,Clube de campo,,https://www.google.com/maps/place/Clube+de+Campo+Luso+Brasileiro+-+S%C3%A3o+Jose+Dos+Campos/data=!4m7!3m6!1s0x94cc48c43bde00c9:0x618e1be2b47f07bb!8m2!3d-23.1248056!4d-45.8653574!16s%2Fg%2F11cn2vvy4r!19sChIJyQDeO8RIzJQRuwd_tOIbjmE?authuser=0&hl=pt-BR&rclk=1,scraper_gmaps|clube São José dos Campos - SP|clube de campo São José dos Campos - SP|clube recreativo São José dos Campos - SP|clube social São José dos Campos - SP
5255b86e471df1ed,Associação Esportiva São José,,-23.1910339,-45.9220617,,,,"4,5",115,Clube de campo,,https://www.google.com/maps/place/Associa%C3%A7%C3%A3o+Esportiva+S%C3%A3o+Jos%C3%A9/data=!4m7!3m6!1s0x94cc35e0a738e539:0xd70e4c83b90631b8!8m2!3d-23.1910339!4d-45.9220617!16s%2Fg%2F1tdh4zyv!19sChIJOeU4p-A1zJQRuDEGuYNMDtc?authuser=0&hl=pt-BR&rclk=1,scraper_gmaps|clube São José dos Campos - SP|clube de campo São José dos Campos - SP|clube recreativo São José dos Campos - SP|clube social São José dos Campos - SP|associação recreativa São José dos Campos - SP
656db7cb892a7456,Clube de Campo ADC Embraer,"· Estrada Padre Luiz Albino Bertolotti, S/N Rodovia dos Tamoios, Av. Brasil, km 7,5",-23.2709323,-45.8387774,,,,"4,7",2296,Clube de campo,,https://www.google.com/maps/place/Clube+de+Campo+ADC+Embraer/data=!4m7!3m6!1s0x94cc4adda5689475:0x57acde99fb101e77!8m2!3d-23.2709323!4d-45.8387774!16s%2Fg%2F11b630rqdr!19sChIJdZRopd1KzJQRdx4Q-5nerFc?authuser=0&hl=pt-BR&rclk=1,scraper_gmaps|clube São José dos Campos - SP|clube de campo São José dos Campos - SP|clube recreativo São José dos Campos - SP|clube social São José dos Campos - SP|associação recreativa São José dos Campos - SP
744b9300871ee2ad,Lions Clube de São José do Campos Augustin Soliva,"· Av. Engenheiro Francisco José Longo, 460",-23.1971328,-45.8897125,,,,"4,7",18,Associação / organização,,https://www.google.com/maps/place/Lions+Clube+de+S%C3%A3o+Jos%C3%A9+do+Campos+Augustin+Soliva/data=!4m7!3m6!1s0x94cc4a6b87b5a2f9:0x37bce5bc2c670950!8m2!3d-23.1971328!4d-45.8897125!16s%2Fg%2F1tdh0dpv!19sChIJ-aK1h2tKzJQRUAlnLLzlvDc?authuser=0&hl=pt-BR&rclk=1,scraper_gmaps|clube São José dos Campos - SP
a41b62dd067c4cda,Clube Xavante,,-23.2104337,-45.8794149,,,,"4,5",143,Clube recreativo,,https://www.google.com/maps/place/Clube+Xavante/data=!4m7!3m6!1s0x94cc4af66c44c617:0x9f8ff9681122fc1f!8m2!3d-23.2104337!4d-45.8794149!16s%2Fg%2F11c494mfh1!19sChIJF8ZEbPZKzJQRH_wiEWj5j58?authuser=0&hl=pt-BR&rclk=1,scraper_gmaps|clube São José dos Campos - SP|clube recreativo São José dos Campos - SP|clube social São José dos Campos - SP
ee413620821649a3,Clube dos Sargentos,,-23.2050465,-45.8674491,,,,"4,4",135,Clube recreativo,,https://www.google.com/maps/place/Clube+dos+Sargentos/data=!4m7!3m6!1s0x94cc4aff897d2ad7:0x4e7dd91b4a904bdb!8m2!3d-23.2050465!4d-45.8674491!16s%2Fg%2F1ydkbdnj9!19sChIJ1yp9if9KzJQR20uQShvZfU4?authuser=0&hl=pt-BR&rclk=1,scraper_gmaps|clube São José dos Campos - SP|clube de campo São José dos Campos - SP|clube recreativo São José dos Campos - SP|clube social São José dos Campos - SP
2691308dbb64798f,Clube de Ciclismo de São José dos Campos,,-23.198979,-45.914953,,,,"4,3",12,Ciclismo de estrada,,https://www.google.com/maps/place/Clube+de+Ciclismo+de+S%C3%A3o+Jos%C3%A9+dos+Campos/data=!4m7!3m6!1s0x94cc4aea7c4683e5:0x515e01168b2ad534!8m2!3d-23.198979!4d-45.914953!16s%2Fg%2F11bxc6fgp0!19sChIJ5YNGfOpKzJQRNNUqixYBXlE?authuser=0&hl=pt-BR&rclk=1,scraper_gmaps|clube São José dos Campos - SP
2efbb9a93cfee508,São José Desportivo,"· Av. Tívoli, 128",-23.206011,-45.8889945,,,,"4,7",35,Organização não governamental,,https://www.google.com/maps/place/S%C3%A3o+Jos%C3%A9+Desportivo/data=!4m7!3m6!1s0x94cc4a66910f6821:0x9164399ea629da4f!8m2!3d-23.206011!4d-45.8889945!16s%2Fg%2F11g6b49q7h!19sChIJIWgPkWZKzJQRT9oppp45ZJE?authuser=0&hl=pt-BR&rclk=1,scraper_gmaps|clube São José dos Campos - SP|clube de campo São José dos Campos - SP|clube recreativo São José dos Campos - SP
25f5a6ef25347c5b,Clube de Campo Luso Brasileiro,,-23.1936525,-45.8988629,,,,"5,0",2,Associação / organização,,https://www.google.com/maps/place/Clube+de+Campo+Luso+Brasileiro/data=!4m7!3m6!1s0x94cc4a0c7393ffff:0xbaf2a2dd2db7f2e7!8m2!3d-23.1936525!4d-45.8988629!16s%2Fg%2F11nxv80l8z!19sChIJ__-TcwxKzJQR5_K3Ld2i8ro?authuser=0&hl=pt-BR&rclk=1,scraper_gmaps|clube São José dos Campos - SP|clube de campo São José dos Campos - SP|clube recreativo São José dos Campos - SP|clube social São José dos Campos - SP
9af708cd6e963b12,MANCHA VERDE SÃO JOSÉ DOS CAMPOS,,-23.1928555,-45.8843509,,,,"4,9",35,Clube esportivo,,https://www.google.com/maps/place/MANCHA+VERDE+S%C3%83O+JOS%C3%89+DOS+CAMPOS/data=!4m7!3m6!1s0x94cc4b421330b459:0xdf54eea9fb7ee5f5!8m2!3d-23.1928555!4d-45.8843509!16s%2Fg%2F11smy1cvnf!19sChIJWbQwE0JLzJQR9eV--6nuVN8?authuser=0&hl=pt-BR&rclk=1,scraper_gmaps|clube São José dos Campos - SP
7b204ffbcab41320,Arena Pôr do Sol - São José dos Campos,,-23.1921422,-45.8985829,,,,"4,5",232,Clube esportivo,,https://www.google.com/maps/place/Arena+P%C3%B4r+do+Sol+-+S%C3%A3o+Jos%C3%A9+dos+Campos/data=!4m7!3m6!1s0x94cc4b06bb5627e3:0xf3acefcc578ad83c!8m2!3d-23.1921422!4d-45.8985829!16s%2Fg%2F11s84pv4js!19sChIJ4ydWuwZLzJQRPNiKV8zvrPM?authuser=0&hl=pt-BR&rclk=1,scraper_gmaps|clube São José dos Campos - SP
3daf6d3101b0bbf4,Sam's Club São José dos Campos,"· Av. Cassiano Ricardo, 1993",-23.2283657,-45.9112482,,,,"4,3",6577,Hipermercado,,https://www.google.com/maps/place/Sam%27s+Club+S%C3%A3o+Jos%C3%A9+dos+Campos/data=!4m7!3m6!1s0x94cc357a8d3797d7:0x5b5d7efe6a5e1e7e!8m2!3d-23.2283657!4d-45.9112482!16s%2Fg%2F1q64b7pc7!19sChIJ15c3jXo1zJQRfh5eav5-XVs?authuser=0&hl=pt-BR&rclk=1,scraper_gmaps|clube São José dos Campos - SP
367c8cc7a5e01ba2,Estádio Martins Pereira,,-23.1885175,-45.8700161,,,,"4,5",2829,Estádio de futebol,,https://www.google.com/maps/place/Est%C3%A1dio+Martins+Pereira/data=!4m7!3m6!1s0x94cc4a4a3a57de5d:0xbd80b6d4a2a2b746!8m2!3d-23.1885175!4d-45.8700161!16zL20vMDk0aDJq!19sChIJXd5XOkpKzJQRRreiotS2gL0?authuser=0&hl=pt-BR&rclk=1,scraper_gmaps|clube São José dos Campos - SP|clube de campo São José dos Campos - SP|clube social São José dos Campos - SP
1419a9621514fa35,Associação Nikkey de São José dos Campos,,-23.2507871,-45.8866133,,,,"4,8",57,Clube de tênis de mesa,,https://www.google.com/maps/place/Associa%C3%A7%C3%A3o+Nikkey+de+S%C3%A3o+Jos%C3%A9+dos+Campos/data=!4m7!3m6!1s0x94cdb54aeed61645:0x837f9b437e75eb5!8m2!3d-23.2507871!4d-45.8866133!16s%2Fg%2F11hck1yhwt!19sChIJRRbW7kq1zZQRtV7nN7T5Nwg?authuser=0&hl=pt-BR&rclk=1,scraper_gmaps|clube São José dos Campos - SP
2b3a73c811b11042,R9 ACADEMY JARDIM AEROPORTO,,-23.2107997,-45.884142,,,,"5,0",23,Clube de futebol,,https://www.google.com/maps/place/R9+ACADEMY+JARDIM+AEROPORTO/data=!4m7!3m6!1s0x94cc4b21eb0722b1:0x5e474f7339b62e8!8m2!3d-23.2107997!4d-45.884142!16s%2Fg%2F11z9tsnpg2!19sChIJsSIH6yFLzJQR6GKbM_d05AU?authuser=0&hl=pt-BR&rclk=1,scraper_gmaps|clube São José dos Campos - SP
fc9f39146c6f5a85,Sesc São José dos Campos,"· Av. Dr. Ademar de Barros, 999",-23.2010009,-45.8924521,,,,"4,8",5515,Organização de serviço social,,https://www.google.com/maps/place/Sesc+S%C3%A3o+Jos%C3%A9+dos+Campos/data=!4m7!3m6!1s0x94cc4a181d37a7f9:0xaefd4097292cba65!8m2!3d-23.2010009!4d-45.8924521!16s%2Fg%2F1tl1pkfy!19sChIJ-ac3HRhKzJQRZbosKZdA_a4?authuser=0&hl=pt-BR&rclk=1,scraper_gmaps|clube São José dos Campos - SP|clube recreativo São José dos Campos - SP|clube social São José dos Campos - SP
a6a4afe0d6cf2dc2,Base Ball Club São José Campos,"· Av. Dr. Ademar de Barros, 1597",-23.2061868,-45.8943762,,,,"4,4",58,Associação / organização,,https://www.google.com/maps/place/Base+Ball+Club+S%C3%A3o+Jos%C3%A9+Campos/data=!4m7!3m6!1s0x94cc4a7ab331c843:0x6b3fa4a86da6d181!8m2!3d-23.2061868!4d-45.8943762!16s%2Fg%2F1tgnn5rf!19sChIJQ8gxs3pKzJQRgdGmbaikP2s?authuser=0&hl=pt-BR&rclk=1,scraper_gmaps|clube São José dos Campos - SP
9f8b7eada1f599d4,Associação Sabesp,"· Av. Linneu de Moura, 100",-23.1874332,-45.9192619,,,,"4,3",326,Clube,,https://www.google.com/maps/place/Associa%C3%A7%C3%A3o+Sabesp/data=!4m7!3m6!1s0x94cc35edf3c98f47:0xe038a7d2aa9c6738!8m2!3d-23.1874332!4d-45.9192619!16s%2Fg%2F1tkvbwcb!19sChIJR4_J8-01zJQROGecqtKnOOA?authuser=0&hl=pt-BR&rclk=1,scraper_gmaps|clube São José dos Campos - SP|clube de campo São José dos Campos - SP|associação recreativa São José dos Campos - SP
a425de5331a4e7ba,CJTD - Clube Joseense de Tiro Desportivo,,-23.0789715,-45.8721581,,,,"4,9",97,Clube de tiro,,https://www.google.com/maps/place/CJTD+-+Clube+Joseense+de+Tiro+Desportivo/data=!4m7!3m6!1s0x94cc47805133875f:0x6d37dfdc16db0204!8m2!3d-23.0789715!4d-45.8721581!16s%2Fg%2F11jb3z09cq!19sChIJX4czUYBHzJQRBALbFtzfN20?authuser=0&hl=pt-BR&rclk=1,scraper_gmaps|clube São José dos Campos - SP
347f5e6da515e19a,Teatrão do São José Esporte Clube,"· Av. Pres. Juscelino Kubitschek, 7330",-23.181901,-45.8577778,,,,"4,7",184,Arena,,https://www.google.com/maps/place/Teatr%C3%A3o+do+S%C3%A3o+Jos%C3%A9+Esporte+Clube/data=!4m7!3m6!1s0x94cc4bc824cc1f6b:0x3745c83cf4fd905!8m2!3d-23.181901!4d-45.8577778!16s%2Fg%2F1tdgwhwk!19sChIJax_MJMhLzJQRBdlPz4NcdAM?authuser=0&hl=pt-BR&rclk=1,scraper_gmaps|clube São José dos Campos - SP
cb237543a2727a86,ADC EMBRAER,"· Av. Brg. Faria Lima, 2100",-23.2212385,-45.8549874,,,,"4,7",981,Clube,,https://www.google.com/maps/place/ADC+EMBRAER/data=!4m7!3m6!1s0x94cc4b3cd1c54a27:0x9c428cdc1bd22bee!8m2!3d-23.2212385!4d-45.8549874!16s%2Fg%2F1tf3cndy!19sChIJJ0rF0TxLzJQR7ivSG9yMQpw?authuser=0&hl=pt-BR&rclk=1,scraper_gmaps|clube São José dos Campos - SP|clube de campo São José dos Campos - SP|clube social São José dos Campos - SP
4111e6cfbdf95d24,Associação Desportiva da Polícia Militar (ADPM),,-23.2598871,-45.8309672,,,,"4,5",253,Clube de campo,,https://www.google.com/maps/place/Associa%C3%A7%C3%A3o+Desportiva+da+Pol%C3%ADcia+Militar+%28ADPM%29/data=!4m7!3m6!1s0x94cdb4830fb804b3:0xe4ffad3b797b1618!8m2!3d-23.2598871!4d-45.8309672!16s%2Fg%2F11cndb4bzc!19sChIJswS4D4O0zZQRGBZ7eTut_-Q?authuser=0&hl=pt-BR&rclk=1,scraper_gmaps|clube São José dos Campos - SP|clube de campo São José dos Campos - SP
4e980a80afeefa6d,ACM São José dos Campos,,-23.2186098,-45.8898674,,,,"4,6",803,Academia,,https://www.google.com/maps/place/ACM+S%C3%A3o+Jos%C3%A9+dos+Campos/data=!4m7!3m6!1s0x94cc4b2fec9c472b:0x57978a6cb04dd067!8m2!3d-23.2186098!4d-45.8898674!16s%2Fg%2F1tkr0cwq!19sChIJK0ec7C9LzJQRZ9BNsGyKl1c?authuser=0&hl=pt-BR&rclk=1,scraper_gmaps|clube São José dos Campos - SP
afdff08038b73231,GOAL Mais,,-23.2386466,-45.9105114,,,,"4,3",255,Clube esportivo,,https://www.google.com/maps/place/GOAL+Mais/data=!4m7!3m6!1s0x94cc3568819cbc8d:0x5130c4a5a76c855c!8m2!3d-23.2386466!4d-45.9105114!16s%2Fg%2F11spzn1pbh!19sChIJjbycgWg1zJQRXIVsp6XEMFE?authuser=0&hl=pt-BR&rclk=1,scraper_gmaps|clube São José dos Campos - SP|clube social São José dos Campos - SP
f109f81049acf7e7,Grand Club Vila Ema,,-23.2085752,-45.9003084,,,,"4,6",700,Complexo de apartamentos,,https://www.google.com/maps/place/Grand+Club+Vila+Ema/data=!4m7!3m6!1s0x94cc4a7990b05bc1:0x1bbc3b72d5a7a111!8m2!3d-23.2085752!4d-45.9003084!16s%2Fg%2F11b7l1vvwc!19sChIJwVuwkHlKzJQREaGn1XI7vBs?authuser=0&hl=pt-BR&rclk=1,scraper_gmaps|clube São José dos Campos - SP
7add95da815db648,Clube do Sindicato dos Empregados no Comércio de São José dos Campos,,-23.2251382,-45.8030694,,,,"4,6",294,Sindicato,,https://www.google.com/maps/place/Clube+do+Sindicato+dos+Empregados+no+Com%C3%A9rcio+de+S%C3%A3o+Jos%C3%A9+dos+Campos/data=!4m7!3m6!1s0x94cdb479e845d08d:0x55754c4c51ab95c6!8m2!3d-23.2251382!4d-45.8030694!16s%2Fg%2F1ptyshf3z!19sChIJjdBF6Hm0zZQRxpWrUUxMdVU?authuser=0&hl=pt-BR&rclk=1,scraper_gmaps|clube São José dos Campos - SP|clube recreativo São José dos Campos - SP
e4ad52b4865c310a,Clube Antônio Royo Marin,,-23.0863518,-45.9444781,,,,"4,9",14,Clube,,https://www.google.com/maps/place/Clube+Ant%C3%B4nio+Royo+Marin/data=!4m7!3m6!1s0x94cc39f242e604a9:0xee219318d256bf7f!8m2!3d-23.0863518!4d-45.9444781!16s%2Fg%2F11sxycwysz!19sChIJqQTmQvI5zJQRf79W0hiTIe4?authuser=0&hl=pt-BR&rclk=1,scraper_gmaps|clube São José dos Campos - SP
5a3012ac86383dc3,ASSEM - Associação dos Servidores Municipais de São José dos Campos,,-23.1847506,-45.8795949,,,,"4,6",564,Organização sem fins lucrativos,,https://www.google.com/maps/place/ASSEM+-+Associa%C3%A7%C3%A3o+dos+Servidores+Municipais+de+S%C3%A3o+Jos%C3%A9+dos+Campos/data=!4m7!3m6!1s0x94cc4a24ca59960d:0x38aa0bafd01cbb19!8m2!3d-23.1847506!4d-45.8795949!16s%2Fg%2F1td2j05z!19sChIJDZZZyiRKzJQRGbsc0K8Lqjg?authuser=0&hl=pt-BR&rclk=1,scraper_gmaps|clube São José dos Campos - SP|associação recreativa São José dos Campos - SP
69c835b3ad8efc00,Tenis Clube de São José dos Campos,São José dos Campos - SP,-23.1934279,-45.8930148,,,,,,Av. Nove de Julho - Vila Adyana,,https://www.google.com/maps/place/Tenis+Clube+de+S%C3%A3o+Jos%C3%A9+dos+Campos/data=!4m7!3m6!1s0x94cc4a12ede3b04b:0xf77f8a4cd51d2717!8m2!3d-23.1934279!4d-45.8930148!16s%2Fg%2F11x6rb9d7d!19sChIJS7Dj7RJKzJQRFycd1UyKf_c?authuser=0&hl=pt-BR&rclk=1,scraper_gmaps|clube São José dos Campos - SP
e705ade47bc9b4ea,Clube Recreativo Orion,"· Av. Brasil, 146",-23.1806307,-45.8736183,,,,"5,0",6,Clube,,https://www.google.com/maps/place/Clube+Recreativo+Orion/data=!4m7!3m6!1s0x94cc4b007097c023:0x80fce9444e1c991c!8m2!3d-23.1806307!4d-45.8736183!16s%2Fg%2F11yjztrb4n!19sChIJI8CXcABLzJQRHJkcTkTp_IA?authuser=0&hl=pt-BR&rclk=1,scraper_gmaps|clube São José dos Campos - SP|clube recreativo São José dos Campos - SP
d3692abce3d8060b,ADC INPE,· Av. dos Astronautas,-23.2094707,-45.8578948,,,,"4,5",694,Clube,,https://www.google.com/maps/place/ADC+INPE/data=!4m7!3m6!1s0x94cc4b0515bb810b:0xbd8d05cbfd30ae95!8m2!3d-23.2094707!4d-45.8578948!16s%2Fg%2F1tj74qhy!19sChIJC4G7FQVLzJQRla4w_csFjb0?authuser=0&hl=pt-BR&rclk=1,scraper_gmaps|clube São José dos Campos - SP|clube de campo São José dos Campos - SP
1a88bc8d8bf4bfda,OBA SPORTS,"· Av. Brg. Faria Lima, 2100",-23.2212414,-45.8550478,,,,"3,7",3,Clube,,https://www.google.com/maps/place/OBA+SPORTS/data=!4m7!3m6!1s0x94cc4b8fa6fdf613:0x3be9d063ce355fd5!8m2!3d-23.2212414!4d-45.8550478!16s%2Fg%2F11y0s7vrq1!19sChIJE_b9po9LzJQR1V81zmPQ6Ts?authuser=0&hl=pt-BR&rclk=1,scraper_gmaps|clube São José dos Campos - SP
600b78504f9d23e2,Pesqueiro do Louro,,-23.2556766,-45.8696026,,,,"4,3",1364,Clube de pesca,,https://www.google.com/maps/place/Pesqueiro+do+Louro/data=!4m7!3m6!1s0x94cdb5268b6ff06d:0x14599e4c0f6db71c!8m2!3d-23.2556766!4d-45.8696026!16s%2Fg%2F11c57rcj5h!19sChIJbfBviya1zZQRHLdtD0yeWRQ?authuser=0&hl=pt-BR&rclk=1,scraper_gmaps|clube São José dos Campos - SP
d7af557a95151e13,Grêmio Esportivo Jardim das Indústrias,,-23.2280826,-45.9179917,,,,"4,6",288,Ginásio poliesportivo,,https://www.google.com/maps/place/Gr%C3%AAmio+Esportivo+Jardim+das+Ind%C3%BAstrias/data=!4m7!3m6!1s0x94cc357145b09321:0x826a5389923c2484!8m2!3d-23.2280826!4d-45.9179917!16s%2Fg%2F1ydnqg6t2!19sChIJIZOwRXE1zJQRhCQ8kolTaoI?authuser=0&hl=pt-BR&rclk=1,scraper_gmaps|clube São José dos Campos - SP|clube de campo São José dos Campos - SP|clube recreativo São José dos Campos - SP|clube social São José dos Campos - SP
a502803c29a9bdab,Aero São José dos Campos | Escola de Aviação | Ciac | Aeroclube | Comissário de Voo | Mecânico | Piloto avião Helicóptero,,-23.1913757,-45.8896606,,,,"4,9",142,Escola de Aviação Civil,,https://www.google.com/maps/place/Aero+S%C3%A3o+Jos%C3%A9+dos+Campos+%7C+Escola+de+Avia%C3%A7%C3%A3o+%7C+Ciac+%7C+Aeroclube+%7C+Comiss%C3%A1rio+de+Voo+%7C+Mec%C3%A2nico+%7C+Piloto+avi%C3%A3o+Helic%C3%B3ptero/data=!4m7!3m6!1s0x94cc4ab54b3798a7:0x7e836b83efa6cae7!8m2!3d-23.1913757!4d-45.8896606!16s%2Fg%2F1ptxbx_8t!19sChIJp5g3S7VKzJQR58qm74Nrg34?authuser=0&hl=pt-BR&rclk=1,scraper_gmaps|clube São José dos Campos - SP
a6dab169dc594219,Chute Inicial Corinthians São José dos Campos - Centro,"· Av. Nove de Julho, 23",-23.192683,-45.8929078,,,,"4,8",156,Treino de futebol,,https://www.google.com/maps/place/Chute+Inicial+Corinthians+S%C3%A3o+Jos%C3%A9+dos+Campos+-+Centro/data=!4m7!3m6!1s0x94cc4b124ec0ff89:0x239b202f892dc29e!8m2!3d-23.192683!4d-45.8929078!16s%2Fg%2F11spxv6dcj!19sChIJif_AThJLzJQRnsItiS8gmyM?authuser=0&hl=pt-BR&rclk=1,scraper_gmaps|clube São José dos Campos - SP
97e4791a8bae31b5,Clube Autos São José dos Campos,"· Av. Barão do Rio Branco, 1081",-23.2009533,-45.9040989,,,,"1,0",1,Associação / organização,,https://www.google.com/maps/place/Clube+Autos+S%C3%A3o+Jos%C3%A9+dos+Campos/data=!4m7!3m6!1s0x94cc35840cfae585:0x9253b4a947e30574!8m2!3d-23.2009533!4d-45.9040989!16s%2Fg%2F11sfhqcy76!19sChIJheX6DIQ1zJQRdAXjR6m0U5I?authuser=0&hl=pt-BR&rclk=1,scraper_gmaps|clube São José dos Campos - SP
0562fd30b21fb8df,Sesi São José dos Campos,"· Av. Cidade Jardim, 4389",-23.2519012,-45.885259,,,,"4,6",1627,Organização de serviço social,,https://www.google.com/maps/place/Sesi+S%C3%A3o+Jos%C3%A9+dos+Campos/data=!4m7!3m6!1s0x94cc4ac1aa7cfe11:0xbd546b52e8f8f951!8m2!3d-23.2519012!4d-45.885259!16s%2Fg%2F1tj1t602!19sChIJEf58qsFKzJQRUfn46FJrVL0?authuser=0&hl=pt-BR&rclk=1,scraper_gmaps|clube São José dos Campos - SP|clube social São José dos Campos - SP
4afe824edade7fff,ADCCTA,,-23.210868,-45.877084,,,,"4,7",219,Associação / organização,,https://www.google.com/maps/place/ADCCTA/data=!4m7!3m6!1s0x94cc4a5e8027e3af:0x976b703d84608541!8m2!3d-23.210868!4d-45.877084!16s%2Fg%2F1ptzkzk8j!19sChIJr-MngF5KzJQRQYVghD1wa5c?authuser=0&hl=pt-BR&rclk=1,scraper_gmaps|clube São José dos Campos - SP|clube de campo São José dos Campos - SP
919538e739eb8fca,COCTA - CLUBE DOS OFICIAIS,,-23.2030085,-45.8800264,,,,"4,7",3,Clube,,https://www.google.com/maps/place/COCTA+-+CLUBE+DOS+OFICIAIS/data=!4m7!3m6!1s0x94cc4b00583e0c1b:0x6890fa10fdc2fcf6!8m2!3d-23.2030085!4d-45.8800264!16s%2Fg%2F11y0g4_dk2!19sChIJGww-WABLzJQR9vzC_RD6kGg?authuser=0&hl=pt-BR&rclk=1,scraper_gmaps|clube São José dos Campos - SP
1d199734c05e5a1a,Arena Bosque - Bosque Futebol Clube,,-23.2585737,-45.8878045,,,,"4,5",183,Campo de futebol,,https://www.google.com/maps/place/Arena+Bosque+-+Bosque+Futebol+Clube/data=!4m7!3m6!1s0x94cdb5488fa46979:0xeee59dd2b81692c6!8m2!3d-23.2585737!4d-45.8878045!16s%2Fg%2F11c5t0sxw5!19sChIJeWmkj0i1zZQRxpIWuNKd5e4?authuser=0&hl=pt-BR&rclk=1,scraper_gmaps|clube São José dos Campos - SP|clube de campo São José dos Campos - SP
b9bb6071cb630965,Meccia Futebol Club -São José dos Campos,"· Av. Dr. Eduardo Cury, 350 - Apto 106",-23.2009728,-45.9095951,,,,,,Clube,,https://www.google.com/maps/place/Meccia+Futebol+Club+-S%C3%A3o+Jos%C3%A9+dos+Campos/data=!4m7!3m6!1s0x94cc35d5e9492341:0xcedff6f2ed85622!8m2!3d-23.2009728!4d-45.9095951!16s%2Fg%2F11khbg53vy!19sChIJQSNJ6dU1zJQRIlbYLm__7Qw?authuser=0&hl=pt-BR&rclk=1,scraper_gmaps|clube São José dos Campos - SP
a512f69587faa164,Clube 14bis,,-23.1973989,-45.8924088,,,,"5,0",3,Associação / organização,,https://www.google.com/maps/place/Clube+14bis/data=!4m7!3m6!1s0x94cc4a6dacee3453:0x14cd63b3e5a470c4!8m2!3d-23.1973989!4d-45.8924088!16s%2Fg%2F11g8yl778x!19sChIJUzTurG1KzJQRxHCk5bNjzRQ?authuser=0&hl=pt-BR&rclk=1,scraper_gmaps|clube São José dos Campos - SP
db0f9f82609aa36c,E.C.Primeiro de Maio,,-23.2357768,-45.909484,,,,"5,0",1,Clube,,https://www.google.com/maps/place/E.C.Primeiro+de+Maio/data=!4m7!3m6!1s0x94cc354869b39f37:0xc9d1d8ee3b75d142!8m2!3d-23.2357768!4d-45.909484!16s%2Fg%2F11rfn3ykk_!19sChIJN5-zaUg1zJQRQtF1O-7Y0ck?authuser=0&hl=pt-BR&rclk=1,scraper_gmaps|clube São José dos Campos - SP
1763be45103696d7,São José Esporte Clube,,-23.1914728,-45.8694591,,,,,,Club,,https://www.google.com/maps/place/S%C3%A3o+Jos%C3%A9+Esporte+Clube/data=!4m7!3m6!1s0x94cc4a4c7545ce9b:0x5bb5760ffe30b7f5!8m2!3d-23.1914728!4d-45.8694591!16s%2Fg%2F11mvh65p2z!19sChIJm85FdUxKzJQR9bcw_g92tVs?authuser=0&hl=pt-BR&rclk=1,scraper_gmaps|clube São José dos Campos - SP
b001685f2da67cf0,São José Esporte Clube / Vila Industrial,"· Rua Dr. Ricardo Edwards, 95",-23.1809677,-45.8571436,,,,,,Clube,,https://www.google.com/maps/place/S%C3%A3o+Jos%C3%A9+Esporte+Clube+%2F+Vila+Industrial/data=!4m7!3m6!1s0x94cc4bc0ab4ae585:0x8aeb1f580fb9c1a0!8m2!3d-23.1809677!4d-45.8571436!16s%2Fg%2F1yfjq0yw_!19sChIJheVKq8BLzJQRoMG5D1gf64o?authuser=0&hl=pt-BR&rclk=1,scraper_gmaps|clube São José dos Campos - SP
0c1aa39e4d19cff3,Clube de Campo Sindicato dos Bancários de SJC,,-23.1554959,-45.8854203,,,,"4,5",649,Clube de campo,,https://www.google.com/maps/place/Clube+de+Campo+Sindicato+dos+Banc%C3%A1rios+de+SJC/data=!4m7!3m6!1s0x94cc49eab720db2d:0xb402e52af5bfbb44!8m2!3d-23.1554959!4d-45.8854203!16s%2Fg%2F11c20b3m3z!19sChIJLdsgt-pJzJQRRLu_9SrlArQ?authuser=0&hl=pt-BR&rclk=1,scraper_gmaps|clube de campo São José dos Campos - SP|clube recreativo São José dos Campos - SP
ab4f403cdd6319b2,Clube de Campo ASSEM,"· Estr. Mun. Nelson Tavares da Silva, 3001",-23.2011951,-45.7671468,,,,"4,5",576,Clube de campo,,https://www.google.com/maps/place/Clube+de+Campo+ASSEM/data=!4m7!3m6!1s0x94cc4d4d4484e27f:0xf9a67400cb912625!8m2!3d-23.2011951!4d-45.7671468!16s%2Fg%2F12llq1pvp!19sChIJf-KERE1NzJQRJSaRywB0pvk?authuser=0&hl=pt-BR&rclk=1,scraper_gmaps|clube de campo São José dos Campos - SP|associação recreativa São José dos Campos - SP
88d29db8151596a5,Clube ARRAVV VISTA,,-23.180808,-45.82933,,,,"4,5",104,Clube de campo,,https://www.google.com/maps/place/Clube+ARRAVV+VISTA/data=!4m7!3m6!1s0x94cc4b886983bd61:0x2023c5f6930a5bf6!8m2!3d-23.180808!4d-45.82933!16s%2Fg%2F11c1369r8r!19sChIJYb2DaYhLzJQR9lsKk_bFIyA?authuser=0&hl=pt-BR&rclk=1,scraper_gmaps|clube de campo São José dos Campos - SP|clube recreativo São José dos Campos - SP
b50f9f9431087773,Ginásio Linneu de Moura,,-23.1901337,-45.8865026,,,,"4,5",683,Ginásio poliesportivo,,https://www.google.com/maps/place/Gin%C3%A1sio+Linneu+de+Moura/data=!4m7!3m6!1s0x94cc4a15a6dec46d:0x240d7b6675e0f186!8m2!3d-23.1901337!4d-45.8865026!16s%2Fg%2F11bbrjvfx6!19sChIJbcTephVKzJQRhvHgdWZ7DSQ?authuser=0&hl=pt-BR&rclk=1,scraper_gmaps|clube de campo São José dos Campos - SP|clube recreativo São José dos Campos - SP
68e82148c1c4daed,CLUBE DE CAMPO SAO JOSE,,-23.6061203,-46.3203981,,,,"4,8",96,Clube de campo,,https://www.google.com/maps/place/CLUBE+DE+CAMPO+SAO+JOSE/data=!4m7!3m6!1s0x94ce710be9b082e9:0x39ae1e5e73c87dbc!8m2!3d-23.6061203!4d-46.3203981!16s%2Fg%2F11cs6fm7cq!19sChIJ6YKw6QtxzpQRvH3Ic14erjk?authuser=0&hl=pt-BR&rclk=1,scraper_gmaps|clube de campo São José dos Campos - SP
a087d228eda41f4a,Clube de Campo de São Paulo,,-23.7348764,-46.7218602,,,,"4,7",1653,Clube de campo,,https://www.google.com/maps/place/Clube+de+Campo+de+S%C3%A3o+Paulo/data=!4m7!3m6!1s0x94ce4ef794ed93ff:0xc2dde65b322b8faa!8m2!3d-23.7348764!4d-46.7218602!16s%2Fg%2F11c2j7p11m!19sChIJ_5PtlPdOzpQRqo8rMlvm3cI?authuser=0&hl=pt-BR&rclk=1,scraper_gmaps|clube de campo São José dos Campos - SP
bb78ffc53da3ad02,Centro de Formação de Atletas Athletico Paranaense São José dos Campos,,-23.1865188,-45.8514044,,,,"4,9",53,Clube de futebol,,https://www.google.com/maps/place/Centro+de+Forma%C3%A7%C3%A3o+de+Atletas+Athletico+Paranaense+S%C3%A3o+Jos%C3%A9+dos+Campos/data=!4m7!3m6!1s0x94cc4bd18e1843eb:0x8447d784d8cd28a2!8m2!3d-23.1865188!4d-45.8514044!16s%2Fg%2F11gjv_tlm1!19sChIJ60MYjtFLzJQRoijN2ITXR4Q?authuser=0&hl=pt-BR&rclk=1,scraper_gmaps|clube de campo São José dos Campos - SP
6cb3e723264ff5c6,AABB São José dos Campos,,-23.2643711,-45.8555454,,,,"4,4",291,Associação / organização,,https://www.google.com/maps/place/AABB+S%C3%A3o+Jos%C3%A9+dos+Campos/data=!4m7!3m6!1s0x94cc4a18d66d9607:0x520fda742ab39484!8m2!3d-23.2643711!4d-45.8555454!16s%2Fg%2F1tctgqkw!19sChIJB5Zt1hhKzJQRhJSzKnTaD1I?authuser=0&hl=pt-BR&rclk=1,scraper_gmaps|clube de campo São José dos Campos - SP
3e257471dfe6838d,Campo da Toca do Leão,"· 448, Rua Alzíro Lebrão, 370",-23.1513372,-45.8984585,,,,"4,4",145,Campo de futebol,,https://www.google.com/maps/place/Campo+da+Toca+do+Le%C3%A3o/data=!4m7!3m6!1s0x94cc49da3a7cbf2d:0xfb3099810c09f47d!8m2!3d-23.1513372!4d-45.8984585!16s%2Fg%2F11cn0qh3ls!19sChIJLb98OtpJzJQRffQJDIGZMPs?authuser=0&hl=pt-BR&rclk=1,scraper_gmaps|clube de campo São José dos Campos - SP|clube social São José dos Campos - SP
f4271af994839d73,Clube dos Empregados da Petrobras - CEPE,,-23.186647,-45.8511476,,,,"4,4",503,Clube recreativo,,https://www.google.com/maps/place/Clube+dos+Empregados+da+Petrobras+-+CEPE/data=!4m7!3m6!1s0x94cc4a626107ff97:0x6a4ec216e4f52254!8m2!3d-23.186647!4d-45.8511476!16s%2Fg%2F11b6hhc1hn!19sChIJl_8HYWJKzJQRVCL15BbCTmo?authuser=0&hl=pt-BR&rclk=1,scraper_gmaps|clube de campo São José dos Campos - SP|clube recreativo São José dos Campos - SP|clube social São José dos Campos - SP
29f699a031d8ac90,Campo do Oriente E.C.O.,,-23.2462264,-45.8973206,,,,"4,9",34,Academia,,https://www.google.com/maps/place/Campo+do+Oriente+E.C.O./data=!4m7!3m6!1s0x94cc4b63a317a479:0xd77eb499e7c677a8!8m2!3d-23.2462264!4d-45.8973206!16s%2Fg%2F11h3nnjr_h!19sChIJeaQXo2NLzJQRqHfG55m0ftc?authuser=0&hl=pt-BR&rclk=1,scraper_gmaps|clube de campo São José dos Campos - SP
0a72fe9cdeafe88e,Thermas do Vale,"· Av. Linneu de Moura, 205",-23.1998695,-45.9143628,,,,"4,5",3099,Parque aquático,,https://www.google.com/maps/place/Thermas+do+Vale/data=!4m7!3m6!1s0x94cc35eddaaaf0dd:0x6da95a3efc983e4f!8m2!3d-23.1998695!4d-45.9143628!16s%2Fg%2F1jgm3840w!19sChIJ3fCq2u01zJQRTz6Y_D5aqW0?authuser=0&hl=pt-BR&rclk=1,scraper_gmaps|clube de campo São José dos Campos - SP|clube recreativo São José dos Campos - SP
a06b59a2b1aa9d98,Campo - Vila São José,,-23.0164042,-45.5314418,,,,"4,5",156,Campo de futebol,,https://www.google.com/maps/place/Campo+-+Vila+S%C3%A3o+Jos%C3%A9/data=!4m7!3m6!1s0x94ccf97beabb8eb3:0x8443a03c1345ce99!8m2!3d-23.0164042!4d-45.5314418!16s%2Fg%2F11c1vkv0w3!19sChIJs4676nv5zJQRmc5FEzygQ4Q?authuser=0&hl=pt-BR&rclk=1,scraper_gmaps|clube de campo São José dos Campos - SP
525f0d63cec1c66d,Campo João do Pulo,,-23.1634249,-45.8910643,,,,"4,8",4,Clube,,https://www.google.com/maps/place/Campo+Jo%C3%A3o+do+Pulo/data=!4m7!3m6!1s0x94cc49eef5a929ed:0x1767afe3669d5300!8m2!3d-23.1634249!4d-45.8910643!16s%2Fg%2F1yfjlv0dz!19sChIJ7Smp9e5JzJQRAFOdZuOvZxc?authuser=0&hl=pt-BR&rclk=1,scraper_gmaps|clube de campo São José dos Campos - SP
77d05e8dfb57877f,Arena Bate Bola,,-23.1768426,-45.8219744,,,,"4,6",731,Campo de futebol,,https://www.google.com/maps/place/Arena+Bate+Bola/data=!4m7!3m6!1s0x94cc4c7121985f29:0x98e936530660d16!8m2!3d-23.1768426!4d-45.8219744!16s%2Fg%2F11dfjbx9bw!19sChIJKV-YIXFMzJQRFg1mMGWTjgk?authuser=0&hl=pt-BR&rclk=1,scraper_gmaps|clube de campo São José dos Campos - SP
fa8437b030e5649b,Flamenguinho Futebol Clube,,-23.2166033,-45.7947301,,,,"4,1",61,Parque,,https://www.google.com/maps/place/Flamenguinho+Futebol+Clube/data=!4m7!3m6!1s0x94cc4cd4a82d46e9:0xeba2d20281ef3b9c!8m2!3d-23.2166033!4d-45.7947301!16s%2Fg%2F11g9q1n4jz!19sChIJ6UYtqNRMzJQRnDvvgQLSous?authuser=0&hl=pt-BR&rclk=1,scraper_gmaps|clube de campo São José dos Campos - SP
98142cdda9f8a8db,Centro Poliesportivo Tesouro,,-23.174496,-45.8456834,,,,"4,6",135,Clube,,https://www.google.com/maps/place/Centro+Poliesportivo+Tesouro/data=!4m7!3m6!1s0x94cc4bea1568b92f:0x18a17c9f60af76e5!8m2!3d-23.174496!4d-45.8456834!16s%2Fg%2F1yfj5sg0j!19sChIJL7loFepLzJQR5XavYJ98oRg?authuser=0&hl=pt-BR&rclk=1,scraper_gmaps|clube de campo São José dos Campos - SP
a129c54ab1ce90a8,Centro Esportivo Palmeiras de São José,,-23.2373136,-45.9132893,,,,"4,6",210,Quadra de esportes,,https://www.google.com/maps/place/Centro+Esportivo+Palmeiras+de+S%C3%A3o+Jos%C3%A9/data=!4m7!3m6!1s0x94cc35688174a9bd:0xcc4e716368074be!8m2!3d-23.2373136!4d-45.9132893!16s%2Fg%2F11clytpn_5!19sChIJval0gWg1zJQRvnSANhbnxAw?authuser=0&hl=pt-BR&rclk=1,scraper_gmaps|clube de campo São José dos Campos - SP
6cf9cabb1bd526a3,Campo do Eugênio de Melo F. C.,,-23.1365509,-45.7826219,,,,"4,4",116,Parque,,https://www.google.com/maps/place/Campo+do+Eug%C3%AAnio+de+Melo+F.+C./data=!4m7!3m6!1s0x94cc4e78637ef935:0xf17c05fc9e8b8bad!8m2!3d-23.1365509!4d-45.7826219!16s%2Fg%2F11cmrsy3tr!19sChIJNfl-Y3hOzJQRrYuLnvwFfPE?authuser=0&hl=pt-BR&rclk=1,scraper_gmaps|clube de campo São José dos Campos - SP
5f33c3ec1885fd77,Campo de Futebol,,-23.2442472,-45.9038179,,,,"4,3",4,Clube,,https://www.google.com/maps/place/Campo+de+Futebol/data=!4m7!3m6!1s0x94cc35561c7f96c9:0xb096ca462b74f4!8m2!3d-23.2442472!4d-45.9038179!16s%2Fg%2F1vd966f5!19sChIJyZZ_HFY1zJQR9HQrRsqWsAA?authuser=0&hl=pt-BR&rclk=1,scraper_gmaps|clube de campo São José dos Campos - SP
42084d63f201782c,Clube Recreativo Jequitibá,,-23.1037552,-45.6962144,,,,"4,6",1579,Clube de campo,,https://www.google.com/maps/place/Clube+Recreativo+Jequitib%C3%A1/data=!4m7!3m6!1s0x94cc515e272e8a33:0x20adba5166b01b4a!8m2!3d-23.1037552!4d-45.6962144!16s%2Fg%2F1v76_sjt!19sChIJM4ouJ15RzJQRShuwZlG6rSA?authuser=0&hl=pt-BR&rclk=1,scraper_gmaps|clube recreativo São José dos Campos - SP
58ebd2f2e0d88b2b,Grêmio Recreativo Nestlé de Caçapava,,-23.1082332,-45.7210129,,,,"4,4",839,Clube,,https://www.google.com/maps/place/Gr%C3%AAmio+Recreativo+Nestl%C3%A9+de+Ca%C3%A7apava/data=!4m7!3m6!1s0x94cc5184b642ba2f:0xcd41f3c07afdba50!8m2!3d-23.1082332!4d-45.7210129!16s%2Fg%2F1tdnm740!19sChIJL7pCtoRRzJQRULr9esDzQc0?authuser=0&hl=pt-BR&rclk=1,scraper_gmaps|clube recreativo São José dos Campos - SP
e8757b299bf60dd8,Clube Desportivo Recreativo São José,"· Rua Dom Lucas Obes, 478",-23.5894618,-46.6024675,,,,"3,0",4,Cancha de bocha,,https://www.google.com/maps/place/Clube+Desportivo+Recreativo+S%C3%A3o+Jos%C3%A9/data=!4m7!3m6!1s0x94ce5ba4334ae621:0x76734d867c9978bb!8m2!3d-23.5894618!4d-46.6024675!16s%2Fg%2F11tx6_f6ww!19sChIJIeZKM6RbzpQRu3iZfIZNc3Y?authuser=0&hl=pt-BR&rclk=1,scraper_gmaps|clube recreativo São José dos Campos - SP
870ef3d52398462d,Subsede Dragões da Real SJC,,-23.1830394,-45.8544357,,,,"5,0",4,Clube recreativo,,https://www.google.com/maps/place/Subsede+Drag%C3%B5es+da+Real+SJC/data=!4m7!3m6!1s0x94cc4ba53efad435:0x1a089b0e5311729b!8m2!3d-23.1830394!4d-45.8544357!16s%2Fg%2F11l5z8j6c2!19sChIJNdT6PqVLzJQRm3IRUw6bCBo?authuser=0&hl=pt-BR&rclk=1,scraper_gmaps|clube recreativo São José dos Campos - SP|clube social São José dos Campos - SP
e534d25749d05883,Clube Recreativo Esportivo Gonzaga,,-23.6236062,-46.5631255,,,,"4,4",384,Clube,,https://www.google.com/maps/place/Clube+Recreativo+Esportivo+Gonzaga/data=!4m7!3m6!1s0x94ce5cdc9e3014f1:0x41b5129260f62571!8m2!3d-23.6236062!4d-46.5631255!16s%2Fg%2F1tk8d7jn!19sChIJ8RQwntxczpQRcSX2YJIStUE?authuser=0&hl=pt-BR&rclk=1,scraper_gmaps|clube recreativo São José dos Campos - SP
010c3ce6f074809e,CER Bochófilo São José,,-23.6216899,-46.571494,,,,"4,7",133,Clube de ginástica,,https://www.google.com/maps/place/CER+Boch%C3%B3filo+S%C3%A3o+Jos%C3%A9/data=!4m7!3m6!1s0x94ce5cc1d294cc8f:0xea34abe41cfca59d!8m2!3d-23.6216899!4d-46.571494!16s%2Fg%2F1tgx34n1!19sChIJj8yU0sFczpQRnaX8HOSrNOo?authuser=0&hl=pt-BR&rclk=1,scraper_gmaps|clube recreativo São José dos Campos - SP
920e33b329b1808a,Clube Recreativo CERET,,-23.5596647,-46.557685,,,,"4,6",22578,Clube recreativo,,https://www.google.com/maps/place/Clube+Recreativo+CERET/data=!4m7!3m6!1s0x94ce5e802fcb4339:0x9abe00ac4133a5f4!8m2!3d-23.5596647!4d-46.557685!16s%2Fg%2F11b62s027m!19sChIJOUPLL4BezpQR9KUzQawAvpo?authuser=0&hl=pt-BR&rclk=1,scraper_gmaps|clube recreativo São José dos Campos - SP
3f080b358455e3d7,Casa do Jovem,"· Av. Olivo Gomes, 381",-23.1687225,-45.8919981,,,,"4,6",473,Ginásio poliesportivo,,https://www.google.com/maps/place/Casa+do+Jovem/data=!4m7!3m6!1s0x94cc49f100de74e1:0x1c0364a403956865!8m2!3d-23.1687225!4d-45.8919981!16s%2Fg%2F1q66247q_!19sChIJ4XTeAPFJzJQRZWiVA6RkAxw?authuser=0&hl=pt-BR&rclk=1,scraper_gmaps|clube recreativo São José dos Campos - SP
9f0c9bc2b44377bd,Centro Esportivo do Vale do Sol,,-23.2545604,-45.9112283,,,,"4,7",100,Ginásio poliesportivo,,https://www.google.com/maps/place/Centro+Esportivo+do+Vale+do+Sol/data=!4m7!3m6!1s0x94cc3553b4b11091:0x51892f54750550aa!8m2!3d-23.2545604!4d-45.9112283!16s%2Fg%2F11dzdwnh62!19sChIJkRCxtFM1zJQRqlAFdVQviVE?authuser=0&hl=pt-BR&rclk=1,scraper_gmaps|clube recreativo São José dos Campos - SP
af3fb6bbb002d059,Clube Recreativo Cacique,,-23.5562821,-46.2926192,,,,"4,4",147,Clube de futebol,,https://www.google.com/maps/place/Clube+Recreativo+Cacique/data=!4m7!3m6!1s0x94ce70b118d73a91:0x4c19e3025d961ebb!8m2!3d-23.5562821!4d-46.2926192!16s%2Fg%2F11c60cmlhw!19sChIJkTrXGLFwzpQRux6WXQLjGUw?authuser=0&hl=pt-BR&rclk=1,scraper_gmaps|clube recreativo São José dos Campos - SP
f1fab5efe9cc2c05,Clube de Campo Recreativo Piracaiense,,-23.0467249,-46.334205,,,,"4,3",224,Clube de campo,,https://www.google.com/maps/place/Clube+de+Campo+Recreativo+Piracaiense/data=!4m7!3m6!1s0x94ce98a642434fd9:0x6511aa1356383eef!8m2!3d-23.0467249!4d-46.334205!16s%2Fg%2F11b6hl5fv3!19sChIJ2U9DQqaYzpQR7z44VhOqEWU?authuser=0&hl=pt-BR&rclk=1,scraper_gmaps|clube recreativo São José dos Campos - SP
a5cba60e3e9a5731,Clube Recreativo Atibaiano,,-23.1173859,-46.5549507,,,,"4,4",484,Clube,,https://www.google.com/maps/place/Clube+Recreativo+Atibaiano/data=!4m7!3m6!1s0x94cec12736b52e6f:0xc0ef386e70ba146f!8m2!3d-23.1173859!4d-46.5549507!16s%2Fg%2F1tcw99vc!19sChIJby61NifBzpQRbxS6cG4478A?authuser=0&hl=pt-BR&rclk=1,scraper_gmaps|clube recreativo São José dos Campos - SP
6ee64a49ac8278b7,CE Jd. São Paulo - CEE Alfredo Ignácio Trindade,,-23.4949086,-46.6134597,,,,"4,4",2820,Clube,,https://www.google.com/maps/place/CE+Jd.+S%C3%A3o+Paulo+-+CEE+Alfredo+Ign%C3%A1cio+Trindade/data=!4m7!3m6!1s0x94cef6228fac8369:0xcf9b2fef276d7126!8m2!3d-23.4949086!4d-46.6134597!16s%2Fg%2F1210rybh!19sChIJaYOsjyL2zpQRJnFtJ-8vm88?authuser=0&hl=pt-BR&rclk=1,scraper_gmaps|clube recreativo São José dos Campos - SP
006c01ad5be3c5f9,Clube Recreativo de Guarulhos - CRG,,-23.469917,-46.5328935,,,,"4,1",309,Escola de esportes,,https://www.google.com/maps/place/Clube+Recreativo+de+Guarulhos+-+CRG/data=!4m7!3m6!1s0x94cef55dd4afc833:0x7e6e26f304fd1dbe!8m2!3d-23.469917!4d-46.5328935!16s%2Fg%2F1tk68tln!19sChIJM8iv1F31zpQRvh39BPMmbn4?authuser=0&hl=pt-BR&rclk=1,scraper_gmaps|clube recreativo São José dos Campos - SP
9354f8810a7318f8,Esporte Clube Recreativo Lusitano,,-23.5079898,-46.6088562,,,,"4,5",125,Clube,,https://www.google.com/maps/place/Esporte+Clube+Recreativo+Lusitano/data=!4m7!3m6!1s0x94ce58a382da0c31:0x2891ce29a9b8cc57!8m2!3d-23.5079898!4d-46.6088562!16s%2Fg%2F1pp2x7h5k!19sChIJMQzagqNYzpQRV8y4qSnOkSg?authuser=0&hl=pt-BR&rclk=1,scraper_gmaps|clube recreativo São José dos Campos - SP
2a9b38de738eed63,Associação Esportiva e Recreativa Campo Belo,,-23.6269014,-46.6704425,,,,"4,6",335,Clube esportivo,,https://www.google.com/maps/place/Associa%C3%A7%C3%A3o+Esportiva+e+Recreativa+Campo+Belo/data=!4m7!3m6!1s0x94ce5a77e8b40335:0x89483b51f213a05f!8m2!3d-23.6269014!4d-46.6704425!16s%2Fg%2F1vxcxjxp!19sChIJNQO06HdazpQRX6AT8lE7SIk?authuser=0&hl=pt-BR&rclk=1,scraper_gmaps|clube recreativo São José dos Campos - SP
6ded1b98c65a911d,Clube de Campo de Bragança,"· Av. Dom Pedro I, 175",-22.9679834,-46.5394496,,,,"4,6",498,Clube de campo,,https://www.google.com/maps/place/Clube+de+Campo+de+Bragan%C3%A7a/data=!4m7!3m6!1s0x94cec9b918b4fda3:0xc9f19d04eeb93f55!8m2!3d-22.9679834!4d-46.5394496!16s%2Fg%2F1tl7pvwl!19sChIJo_20GLnJzpQRVT-57gSd8ck?authuser=0&hl=pt-BR&rclk=1,scraper_gmaps|clube recreativo São José dos Campos - SP
c4d1bf667ed6b78d,Clube De Campo Anchieta,,-23.7625787,-46.4746369,,,,"4,4",248,Clube de campo,,https://www.google.com/maps/place/Clube+De+Campo+Anchieta/data=!4m7!3m6!1s0x94ce154271ffd03f:0xe0ca4ff9eed6ff2c!8m2!3d-23.7625787!4d-46.4746369!16s%2Fg%2F11f6d9m4q5!19sChIJP9D_cUIVzpQRLP_W7vlPyuA?authuser=0&hl=pt-BR&rclk=1,scraper_gmaps|clube recreativo São José dos Campos - SP
23dcc6fd8bec9d3e,Clube de Campo CCS,,-23.790686,-46.545143,,,,"4,4",636,Clube de campo,,https://www.google.com/maps/place/Clube+de+Campo+CCS/data=!4m7!3m6!1s0x94ce3f86bcc400dd:0x9deadf511c436a48!8m2!3d-23.790686!4d-46.545143!16s%2Fg%2F12hqnlnr_!19sChIJ3QDEvIY_zpQRSGpDHFHf6p0?authuser=0&hl=pt-BR&rclk=1,scraper_gmaps|clube recreativo São José dos Campos - SP
907ed3bf6bfe5644,CDC União do Parque São Rafael,,-23.6257156,-46.4721179,,,,"4,4",104,Clube recreativo,,https://www.google.com/maps/place/CDC+Uni%C3%A3o+do+Parque+S%C3%A3o+Rafael/data=!4m7!3m6!1s0x94ce698d993f4375:0x4348a4846d617843!8m2!3d-23.6257156!4d-46.4721179!16s%2Fg%2F11gj78wr3_!19sChIJdUM_mY1pzpQRQ3hhbYSkSEM?authuser=0&hl=pt-BR&rclk=1,scraper_gmaps|clube recreativo São José dos Campos - SP
f172162663b809f2,Projeto Social Esportivo Galo Branco,,-23.1364448,-45.7640587,,,,"5,0",3,Clube de futebol,,https://www.google.com/maps/place/Projeto+Social+Esportivo+Galo+Branco/data=!4m7!3m6!1s0x94cc4d52127fa729:0xc01ab0d03746b281!8m2!3d-23.1364448!4d-45.7640587!16s%2Fg%2F11gnrsfly_!19sChIJKad_ElJNzJQRgbJGN9CwGsA?authuser=0&hl=pt-BR&rclk=1,scraper_gmaps|clube social São José dos Campos - SP
7a35996d9247bf4b,Rotary Club São José dos Campos-Satélite,· Rua Itapoá s/n Praça Mário Cesare Porto,-23.2302784,-45.8872861,,,,"4,7",7,Club,,https://www.google.com/maps/place/Rotary+Club+S%C3%A3o+Jos%C3%A9+dos+Campos-Sat%C3%A9lite/data=!4m7!3m6!1s0x94cc4b6e634dcf0b:0xe40a4d263307ddbd!8m2!3d-23.2302784!4d-45.8872861!16s%2Fg%2F11qktsxkbm!19sChIJC89NY25LzJQRvd0HMyZNCuQ?authuser=0&hl=pt-BR&rclk=1,scraper_gmaps|clube social São José dos Campos - SP
6bdb2ad0b8373e28,Projeto Social Clube da Criança e do Adolecente,· Av. Dantas Luiz do Prado,-23.2119162,-45.8115554,,,,,,Associação de apoio aos alunos,,https://www.google.com/maps/place/Projeto+Social+Clube+da+Crian%C3%A7a+e+do+Adolecente/data=!4m7!3m6!1s0x94cc4defc610a11b:0xe154603eb85c8a2a!8m2!3d-23.2119162!4d-45.8115554!16s%2Fg%2F11jlg86nhb!19sChIJG6EQxu9NzJQRKopcuD5gVOE?authuser=0&hl=pt-BR&rclk=1,scraper_gmaps|clube social São José dos Campos - SP
6ebdaee021262767,CSCT,,-23.2058234,-45.8678715,,,,"5,0",1,Clube de futebol,,https://www.google.com/maps/place/CSCT/data=!4m7!3m6!1s0x94cc4aff9a35f4a3:0xf0367adca2188486!8m2!3d-23.2058234!4d-45.8678715!16s%2Fg%2F11dymv49x8!19sChIJo_Q1mv9KzJQRhoQYotx6NvA?authuser=0&hl=pt-BR&rclk=1,scraper_gmaps|clube social São José dos Campos - SP
080173c8e840c033,Grupo Nova Era,"· Av. Vinte e Três de Maio, 950",-23.1770553,-45.8760185,,,,"4,5",221,Club,,https://www.google.com/maps/place/Grupo+Nova+Era/data=!4m7!3m6!1s0x94cc4a25835da441:0x7f8dbbae8a521907!8m2!3d-23.1770553!4d-45.8760185!16s%2Fg%2F1td_68zs!19sChIJQaRdgyVKzJQRBxlSiq67jX8?authuser=0&hl=pt-BR&rclk=1,scraper_gmaps|clube social São José dos Campos - SP
01ae0c1868761c96,Coliseu Arena Poker Club,"· Outro lado da - Avenida Deputado Benedito Matarazzo Em frente ao, Rod. Pres. Dutra, 7.100 - Vale Sul Shopping",-23.2137098,-45.8953186,,,,"4,8",37,Clube,,https://www.google.com/maps/place/Coliseu+Arena+Poker+Club/data=!4m7!3m6!1s0x94cc4b32a75ed031:0xf5bc7de1d9314fc8!8m2!3d-23.2137098!4d-45.8953186!16s%2Fg%2F11fm3lrdhw!19sChIJMdBepzJLzJQRyE8x2eF9vPU?authuser=0&hl=pt-BR&rclk=1,scraper_gmaps|clube social São José dos Campos - SP
31cd5d0ebd586d25,Rotary Club São José dos Campos Leste,"· Av. Dep. Benedito Matarazzo, 9009",-23.2027933,-45.8830771,,,,"3,0",1,Organização de serviço social,,https://www.google.com/maps/place/Rotary+Club+S%C3%A3o+Jos%C3%A9+dos+Campos+Leste/data=!4m7!3m6!1s0x94cc4a5d0424231f:0x478497f03f041abd!8m2!3d-23.2027933!4d-45.8830771!16s%2Fg%2F11g9qv7sym!19sChIJHyMkBF1KzJQRvRoEP_CXhEc?authuser=0&hl=pt-BR&rclk=1,scraper_gmaps|clube social São José dos Campos - SP
ccad9ca5451b4886,Escola de futebol Soccerclub,,-23.1838847,-45.7970153,,,,"5,0",5,Clube,,https://www.google.com/maps/place/Escola+de+futebol+Soccerclub/data=!4m7!3m6!1s0x94cc4d4f95383a53:0x45415c32cdcb6eef!8m2!3d-23.1838847!4d-45.7970153!16s%2Fg%2F11v3lhhf91!19sChIJUzo4lU9NzJQR727LzTJcQUU?authuser=0&hl=pt-BR&rclk=1,scraper_gmaps|clube social São José dos Campos - SP
cc2e0175921ad175,Esplanada Society II,,-23.2376578,-45.9109237,,,,"4,6",498,Quadra de esportes,,https://www.google.com/maps/place/Esplanada+Society+II/data=!4m7!3m6!1s0x94cc3567a2f955a9:0x69bab7f772dc44a5!8m2!3d-23.2376578!4d-45.9109237!16s%2Fg%2F1tgjmddd!19sChIJqVX5omc1zJQRpUTccve3umk?authuser=0&hl=pt-BR&rclk=1,scraper_gmaps|clube social São José dos Campos - SP
65b42d0fb9fecede,Fanáticos Futebol Society,,-23.2108572,-45.8845466,,,,"4,7",580,Quadra de esportes,,https://www.google.com/maps/place/Fan%C3%A1ticos+Futebol+Society/data=!4m7!3m6!1s0x94cc4a5ff5d8e459:0x57342078222bae27!8m2!3d-23.2108572!4d-45.8845466!16s%2Fg%2F11g6xwc3hx!19sChIJWeTY9V9KzJQRJ64rInggNFc?authuser=0&hl=pt-BR&rclk=1,scraper_gmaps|clube social São José dos Campos - SP
7c950cefea5dae5d,Centro Social dos Oficiais do DCTA - COCTA,,-23.2061766,-45.8818035,,,,"4,0",1,Clube esportivo,,https://www.google.com/maps/place/Centro+Social+dos+Oficiais+do+DCTA+-+COCTA/data=!4m7!3m6!1s0x94cc4bd134edab83:0xc9687898ce6bfe27!8m2!3d-23.2061766!4d-45.8818035!16s%2Fg%2F11pv776k02!19sChIJg6vtNNFLzJQRJ_5rzph4aMk?authuser=0&hl=pt-BR&rclk=1,scraper_gmaps|clube social São José dos Campos - SP
ee7ca6e8de075989,ADC Embraer EGM - Associação Desportiva Classista Embraer,,-23.1305159,-45.7635511,,,,"4,4",101,Organização de serviço social,,https://www.google.com/maps/place/ADC+Embraer+EGM+-+Associa%C3%A7%C3%A3o+Desportiva+Classista+Embraer/data=!4m7!3m6!1s0x94cc4de52bf7e983:0xef867598d8bfbd9d!8m2!3d-23.1305159!4d-45.7635511!16s%2Fg%2F11c2qs9_t4!19sChIJg-n3K-VNzJQRnb2_2Jh1hu8?authuser=0&hl=pt-BR&rclk=1,scraper_gmaps|clube social São José dos Campos - SP
030c966bcb35d1f0,SASC Secretaria De Apoio Social Ao Cidadão,,-23.1821343,-45.8763992,,,,"4,4",28,Prefeitura,,https://www.google.com/maps/place/SASC+Secretaria+De+Apoio+Social+Ao+Cidad%C3%A3o/data=!4m7!3m6!1s0x94cc4a3a89e6c53d:0xa7f08a7bfc861e24!8m2!3d-23.1821343!4d-45.8763992!16s%2Fg%2F11f57g95vg!19sChIJPcXmiTpKzJQRJB6G_HuK8Kc?authuser=0&hl=pt-BR&rclk=1,scraper_gmaps|clube social São José dos Campos - SP
318453c04b541d8e,AFAC,"· Rua Engenheiro Prudente Meireles de Moraes, 302 Vila Adyanna – Zip – SP São José dos Campos Code:, R. Eng. Prudente Meireles de Morais, 302",-23.198722,-45.8969506,,,,"3,5",2,Clube recreativo,,https://www.google.com/maps/place/AFAC/data=!4m7!3m6!1s0x94cc4a73aa855555:0xa886a027614ac090!8m2!3d-23.198722!4d-45.8969506!16s%2Fg%2F11tnbzws9s!19sChIJVVWFqnNKzJQRkMBKYSeghqg?authuser=0&hl=pt-BR&rclk=1,scraper_gmaps|clube social São José dos Campos - SP
4d52cd0ac7a16424,Fomento da Assistência Social e Cultural,,-23.2051991,-45.8999556,,,,"5,0",1,Associação / organização,,https://www.google.com/maps/place/Fomento+da+Assist%C3%AAncia+Social+e+Cultural/data=!4m7!3m6!1s0x94cc4a773a3db65d:0xc824b30b1af99885!8m2!3d-23.2051991!4d-45.8999556!16s%2Fg%2F1tg5d6jp!19sChIJXbY9OndKzJQRhZj5GguzJMg?authuser=0&hl=pt-BR&rclk=1,scraper_gmaps|clube social São José dos Campos - SP
ec48fbf9b93f19d6,APVE,,-23.2100436,-45.8927671,,,,"4,7",1114,Associação / organização,,https://www.google.com/maps/place/APVE/data=!4m7!3m6!1s0x94cc4a636e947885:0x29ee14693bc471db!8m2!3d-23.2100436!4d-45.8927671!16s%2Fg%2F1tdbgk2h!19sChIJhXiUbmNKzJQR23HEO2kU7ik?authuser=0&hl=pt-BR&rclk=1,scraper_gmaps|clube social São José dos Campos - SP
