place_id,nome,endereco,latitude,longitude,telefone,horario,website,avaliacao,total_reviews,categoria,status_negocio,google_maps_url,fonte
beb7010247f26705,Clube de Campo Santa Rita AESJ,,-23.19104,-45.9220527,,,,"4,6",1701,Clube,,https://www.google.com/maps/place/Clube+de+Campo+Santa+Rita+AESJ/data=!4m7!3m6!1s0x94cc35e74d5bb5f3:0xbe8ba65dcd72436d!8m2!3d-23.19104!4d-45.9220527!16s%2Fg%2F1yfjb5dkq!19sChIJ87VbTec1zJQRbUNyzV2mi74?authuser=0&hl=pt-BR&rclk=1,scraper_gmaps|clube de campo São José dos Campos - SP|clube recreativo São José dos Campos - SP|clube social São José dos Campos - SP|associação recreativa São José dos Campos - SP
5372c9fee0497275,Clube de Campo Luso Brasileiro - São Jose Dos Campos,,-23.1248056,-45.8653574,,,,"4,3",805,Clube de campo,,https://www.google.com/maps/place/Clube+de+Campo+Luso+Brasileiro+-+S%C3%A3o+Jose+Dos+Campos/data=!4m7!3m6!1s0x94cc48c43bde00c9:0x618e1be2b47f07bb!8m2!3d-23.1248056!4d-45.8653574!16s%2Fg%2F11cn2vvy4r!19sChIJyQDeO8RIzJQRuwd_tOIbjmE?authuser=0&hl=pt-BR&rclk=1,scraper_gmaps|clube de campo São José dos Campos - SP|clube recreativo São José dos Campos - SP|clube social São José dos Campos - SP
0c1aa39e4d19cff3,Clube de Campo Sindicato dos Bancários de SJC,,-23.1554959,-45.8854203,,,,"4,5",649,Clube de campo,,https://www.google.com/maps/place/Clube+de+Campo+Sindicato+dos+Banc%C3%A1rios+de+SJC/data=!4m7!3m6!1s0x94cc49eab720db2d:0xb402e52af5bfbb44!8m2!3d-23.1554959!4d-45.8854203!16s%2Fg%2F11c20b3m3z!19sChIJLdsgt-pJzJQRRLu_9SrlArQ?authuser=0&hl=pt-BR&rclk=1,scraper_gmaps|clube de campo São José dos Campos - SP|clube recreativo São José dos Campos - SP
656db7cb892a7456,Clube de Campo ADC Embraer,"· Estrada Padre Luiz Albino Bertolotti, S/N Rodovia dos Tamoios, Av. Brasil, km 7,5",-23.2709323,-45.8387774,,,,"4,7",2295,Clube de campo,,https://www.google.com/maps/place/Clube+de+Campo+ADC+Embraer/data=!4m7!3m6!1s0x94cc4adda5689475:0x57acde99fb101e77!8m2!3d-23.2709323!4d-45.8387774!16s%2Fg%2F11b630rqdr!19sChIJdZRopd1KzJQRdx4Q-5nerFc?authuser=0&hl=pt-BR&rclk=1,scraper_gmaps|clube de campo São José dos Campos - SP|clube recreativo São José dos Campos - SP|clube social São José dos Campos - SP|associação recreativa São José dos Campos - SP|ADC São José dos Campos - SP
5255b86e471df1ed,Associação Esportiva São José,,-23.1910339,-45.9220617,,,,"4,5",115,Clube de campo,,https://www.google.com/maps/place/Associa%C3%A7%C3%A3o+Esportiva+S%C3%A3o+Jos%C3%A9/data=!4m7!3m6!1s0x94cc35e0a738e539:0xd70e4c83b90631b8!8m2!3d-23.1910339!4d-45.9220617!16s%2Fg%2F1tdh4zyv!19sChIJOeU4p-A1zJQRuDEGuYNMDtc?authuser=0&hl=pt-BR&rclk=1,scraper_gmaps|clube de campo São José dos Campos - SP|clube recreativo São José dos Campos - SP|clube social São José dos Campos - SP|associação recreativa São José dos Campos - SP
25f5a6ef25347c5b,Clube de Campo Luso Brasileiro,,-23.1936525,-45.8988629,,,,"5,0",2,Associação / organização,,https://www.google.com/maps/place/Clube+de+Campo+Luso+Brasileiro/data=!4m7!3m6!1s0x94cc4a0c7393ffff:0xbaf2a2dd2db7f2e7!8m2!3d-23.1936525!4d-45.8988629!16s%2Fg%2F11nxv80l8z!19sChIJ__-TcwxKzJQR5_K3Ld2i8ro?authuser=0&hl=pt-BR&rclk=1,scraper_gmaps|clube de campo São José dos Campos - SP|clube recreativo São José dos Campos - SP|clube social São José dos Campos - SP
ab4f403cdd6319b2,Clube de Campo ASSEM,"· Estr. Mun. Nelson Tavares da Silva, 3001",-23.2011951,-45.7671468,,,,"4,5",576,Clube de campo,,https://www.google.com/maps/place/Clube+de+Campo+ASSEM/data=!4m7!3m6!1s0x94cc4d4d4484e27f:0xf9a67400cb912625!8m2!3d-23.2011951!4d-45.7671468!16s%2Fg%2F12llq1pvp!19sChIJf-KERE1NzJQRJSaRywB0pvk?authuser=0&hl=pt-BR&rclk=1,scraper_gmaps|clube de campo São José dos Campos - SP|associação recreativa São José dos Campos - SP
b50f9f9431087773,Ginásio Linneu de Moura,,-23.1901337,-45.8865026,,,,"4,5",683,Ginásio poliesportivo,,https://www.google.com/maps/place/Gin%C3%A1sio+Linneu+de+Moura/data=!4m7!3m6!1s0x94cc4a15a6dec46d:0x240d7b6675e0f186!8m2!3d-23.1901337!4d-45.8865026!16s%2Fg%2F11bbrjvfx6!19sChIJbcTephVKzJQRhvHgdWZ7DSQ?authuser=0&hl=pt-BR&rclk=1,scraper_gmaps|clube de campo São José dos Campos - SP
fe139e6faf06e197,Tênis Clube São José,"· Av. Nove de Julho, 23",-23.192728,-45.892854,,,,"4,3",617,Tênis Clube,,https://www.google.com/maps/place/T%C3%AAnis+Clube+S%C3%A3o+Jos%C3%A9/data=!4m7!3m6!1s0x94cc4a1250b468ab:0xd6ab1457f1943107!8m2!3d-23.192728!4d-45.892854!16zL20vMGJtcnp6!19sChIJq2i0UBJKzJQRBzGU8VcUq9Y?authuser=0&hl=pt-BR&rclk=1,scraper_gmaps|clube de campo São José dos Campos - SP|clube recreativo São José dos Campos - SP
88d29db8151596a5,Clube ARRAVV VISTA,,-23.180808,-45.82933,,,,"4,5",104,Clube de campo,,https://www.google.com/maps/place/Clube+ARRAVV+VISTA/data=!4m7!3m6!1s0x94cc4b886983bd61:0x2023c5f6930a5bf6!8m2!3d-23.180808!4d-45.82933!16s%2Fg%2F11c1369r8r!19sChIJYb2DaYhLzJQR9lsKk_bFIyA?authuser=0&hl=pt-BR&rclk=1,scraper_gmaps|clube de campo São José dos Campos - SP|clube recreativo São José dos Campos - SP
a087d228eda41f4a,Clube de Campo de São Paulo,,-23.7348764,-46.7218602,,,,"4,7",1653,Clube de campo,,https://www.google.com/maps/place/Clube+de+Campo+de+S%C3%A3o+Paulo/data=!4m7!3m6!1s0x94ce4ef794ed93ff:0xc2dde65b322b8faa!8m2!3d-23.7348764!4d-46.7218602!16s%2Fg%2F11c2j7p11m!19sChIJ_5PtlPdOzpQRqo8rMlvm3cI?authuser=0&hl=pt-BR&rclk=1,scraper_gmaps|clube de campo São José dos Campos - SP
6159f975cde6beed,Johnson Clube,"· Av. Dr. Sebastião Henrique da Cunha Pontes, 1400",-23.248119,-45.9310677,,,,"4,6",814,Associação / organização,,https://www.google.com/maps/place/Johnson+Clube/data=!4m7!3m6!1s0x94cc4a62619022cd:0x7a22ad7ea8e7b545!8m2!3d-23.248119!4d-45.9310677!16s%2Fg%2F11b6hkm9tg!19sChIJzSKQYWJKzJQRRbXnqH6tIno?authuser=0&hl=pt-BR&rclk=1,scraper_gmaps|clube de campo São José dos Campos - SP
bb78ffc53da3ad02,Centro de Formação de Atletas Athletico Paranaense São José dos Campos,,-23.1865188,-45.8514044,,,,"4,9",53,Clube de futebol,,https://www.google.com/maps/place/Centro+de+Forma%C3%A7%C3%A3o+de+Atletas+Athletico+Paranaense+S%C3%A3o+Jos%C3%A9+dos+Campos/data=!4m7!3m6!1s0x94cc4bd18e1843eb:0x8447d784d8cd28a2!8m2!3d-23.1865188!4d-45.8514044!16s%2Fg%2F11gjv_tlm1!19sChIJ60MYjtFLzJQRoijN2ITXR4Q?authuser=0&hl=pt-BR&rclk=1,scraper_gmaps|clube de campo São José dos Campos - SP
68e82148c1c4daed,CLUBE DE CAMPO SAO JOSE,,-23.6061203,-46.3203981,,,,"4,8",96,Clube de campo,,https://www.google.com/maps/place/CLUBE+DE+CAMPO+SAO+JOSE/data=!4m7!3m6!1s0x94ce710be9b082e9:0x39ae1e5e73c87dbc!8m2!3d-23.6061203!4d-46.3203981!16s%2Fg%2F11cs6fm7cq!19sChIJ6YKw6QtxzpQRvH3Ic14erjk?authuser=0&hl=pt-BR&rclk=1,scraper_gmaps|clube de campo São José dos Campos - SP
4111e6cfbdf95d24,Associação Desportiva da Polícia Militar (ADPM),,-23.2598871,-45.8309672,,,,"4,5",253,Clube de campo,,https://www.google.com/maps/place/Associa%C3%A7%C3%A3o+Desportiva+da+Pol%C3%ADcia+Militar+%28ADPM%29/data=!4m7!3m6!1s0x94cdb4830fb804b3:0xe4ffad3b797b1618!8m2!3d-23.2598871!4d-45.8309672!16s%2Fg%2F11cndb4bzc!19sChIJswS4D4O0zZQRGBZ7eTut_-Q?authuser=0&hl=pt-BR&rclk=1,scraper_gmaps|clube de campo São José dos Campos - SP
3e257471dfe6838d,Campo da Toca do Leão,"· 448, Rua Alzíro Lebrão, 370",-23.1513372,-45.8984585,,,,"4,4",145,Campo de futebol,,https://www.google.com/maps/place/Campo+da+Toca+do+Le%C3%A3o/data=!4m7!3m6!1s0x94cc49da3a7cbf2d:0xfb3099810c09f47d!8m2!3d-23.1513372!4d-45.8984585!16s%2Fg%2F11cn0qh3ls!19sChIJLb98OtpJzJQRffQJDIGZMPs?authuser=0&hl=pt-BR&rclk=1,scraper_gmaps|clube de campo São José dos Campos - SP
6cb3e723264ff5c6,AABB São José dos Campos,,-23.2643711,-45.8555454,,,,"4,4",291,Associação / organização,,https://www.google.com/maps/place/AABB+S%C3%A3o+Jos%C3%A9+dos+Campos/data=!4m7!3m6!1s0x94cc4a18d66d9607:0x520fda742ab39484!8m2!3d-23.2643711!4d-45.8555454!16s%2Fg%2F1tctgqkw!19sChIJB5Zt1hhKzJQRhJSzKnTaD1I?authuser=0&hl=pt-BR&rclk=1,scraper_gmaps|clube de campo São José dos Campos - SP
f4271af994839d73,Clube dos Empregados da Petrobras - CEPE,,-23.186647,-45.8511476,,,,"4,4",503,Clube recreativo,,https://www.google.com/maps/place/Clube+dos+Empregados+da+Petrobras+-+CEPE/data=!4m7!3m6!1s0x94cc4a626107ff97:0x6a4ec216e4f52254!8m2!3d-23.186647!4d-45.8511476!16s%2Fg%2F11b6hhc1hn!19sChIJl_8HYWJKzJQRVCL15BbCTmo?authuser=0&hl=pt-BR&rclk=1,scraper_gmaps|clube de campo São José dos Campos - SP|clube recreativo São José dos Campos - SP|clube social São José dos Campos - SP
29f699a031d8ac90,Campo do Oriente E.C.O.,,-23.2462264,-45.8973206,,,,"4,9",34,Academia,,https://www.google.com/maps/place/Campo+do+Oriente+E.C.O./data=!4m7!3m6!1s0x94cc4b63a317a479:0xd77eb499e7c677a8!8m2!3d-23.2462264!4d-45.8973206!16s%2Fg%2F11h3nnjr_h!19sChIJeaQXo2NLzJQRqHfG55m0ftc?authuser=0&hl=pt-BR&rclk=1,scraper_gmaps|clube de campo São José dos Campos - SP
9f8b7eada1f599d4,Associação Sabesp,"· Av. Linneu de Moura, 100",-23.1874332,-45.9192619,,,,"4,3",326,Clube,,https://www.google.com/maps/place/Associa%C3%A7%C3%A3o+Sabesp/data=!4m7!3m6!1s0x94cc35edf3c98f47:0xe038a7d2aa9c6738!8m2!3d-23.1874332!4d-45.9192619!16s%2Fg%2F1tkvbwcb!19sChIJR4_J8-01zJQROGecqtKnOOA?authuser=0&hl=pt-BR&rclk=1,scraper_gmaps|clube de campo São José dos Campos - SP|associação recreativa São José dos Campos - SP
e705ade47bc9b4ea,Clube Recreativo Orion,"· Av. Brasil, 146",-23.1806307,-45.8736183,,,,"5,0",6,Clube,,https://www.google.com/maps/place/Clube+Recreativo+Orion/data=!4m7!3m6!1s0x94cc4b007097c023:0x80fce9444e1c991c!8m2!3d-23.1806307!4d-45.8736183!16s%2Fg%2F11yjztrb4n!19sChIJI8CXcABLzJQRHJkcTkTp_IA?authuser=0&hl=pt-BR&rclk=1,scraper_gmaps|clube recreativo São José dos Campos - SP
a41b62dd067c4cda,Clube Xavante,,-23.2104337,-45.8794149,,,,"4,5",143,Clube recreativo,,https://www.google.com/maps/place/Clube+Xavante/data=!4m7!3m6!1s0x94cc4af66c44c617:0x9f8ff9681122fc1f!8m2!3d-23.2104337!4d-45.8794149!16s%2Fg%2F11c494mfh1!19sChIJF8ZEbPZKzJQRH_wiEWj5j58?authuser=0&hl=pt-BR&rclk=1,scraper_gmaps|clube recreativo São José dos Campos - SP|clube social São José dos Campos - SP
d7af557a95151e13,Grêmio Esportivo Jardim das Indústrias,,-23.2280826,-45.9179917,,,,"4,6",288,Ginásio poliesportivo,,https://www.google.com/maps/place/Gr%C3%AAmio+Esportivo+Jardim+das+Ind%C3%BAstrias/data=!4m7!3m6!1s0x94cc357145b09321:0x826a5389923c2484!8m2!3d-23.2280826!4d-45.9179917!16s%2Fg%2F1ydnqg6t2!19sChIJIZOwRXE1zJQRhCQ8kolTaoI?authuser=0&hl=pt-BR&rclk=1,scraper_gmaps|clube recreativo São José dos Campos - SP|clube social São José dos Campos - SP
42084d63f201782c,Clube Recreativo Jequitibá,,-23.1037552,-45.6962144,,,,"4,6",1579,Clube de campo,,https://www.google.com/maps/place/Clube+Recreativo+Jequitib%C3%A1/data=!4m7!3m6!1s0x94cc515e272e8a33:0x20adba5166b01b4a!8m2!3d-23.1037552!4d-45.6962144!16s%2Fg%2F1v76_sjt!19sChIJM4ouJ15RzJQRShuwZlG6rSA?authuser=0&hl=pt-BR&rclk=1,scraper_gmaps|clube recreativo São José dos Campos - SP
ee413620821649a3,Clube dos Sargentos,,-23.2050465,-45.8674491,,,,"4,4",135,Clube recreativo,,https://www.google.com/maps/place/Clube+dos+Sargentos/data=!4m7!3m6!1s0x94cc4aff897d2ad7:0x4e7dd91b4a904bdb!8m2!3d-23.2050465!4d-45.8674491!16s%2Fg%2F1ydkbdnj9!19sChIJ1yp9if9KzJQR20uQShvZfU4?authuser=0&hl=pt-BR&rclk=1,scraper_gmaps|clube recreativo São José dos Campos - SP|clube social São José dos Campos - SP
2efbb9a93cfee508,São José Desportivo,"· Av. Tívoli, 128",-23.206011,-45.8889945,,,,"4,7",35,Organização não governamental,,https://www.google.com/maps/place/S%C3%A3o+Jos%C3%A9+Desportivo/data=!4m7!3m6!1s0x94cc4a66910f6821:0x9164399ea629da4f!8m2!3d-23.206011!4d-45.8889945!16s%2Fg%2F11g6b49q7h!19sChIJIWgPkWZKzJQRT9oppp45ZJE?authuser=0&hl=pt-BR&rclk=1,scraper_gmaps|clube recreativo São José dos Campos - SP|associação recreativa São José dos Campos - SP
58ebd2f2e0d88b2b,Grêmio Recreativo Nestlé de Caçapava,,-23.1082332,-45.7210129,,,,"4,4",839,Clube,,https://www.google.com/maps/place/Gr%C3%AAmio+Recreativo+Nestl%C3%A9+de+Ca%C3%A7apava/data=!4m7!3m6!1s0x94cc5184b642ba2f:0xcd41f3c07afdba50!8m2!3d-23.1082332!4d-45.7210129!16s%2Fg%2F1tdnm740!19sChIJL7pCtoRRzJQRULr9esDzQc0?authuser=0&hl=pt-BR&rclk=1,scraper_gmaps|clube recreativo São José dos Campos - SP
e8757b299bf60dd8,Clube Desportivo Recreativo São José,"· Rua Dom Lucas Obes, 478",-23.5894618,-46.6024675,,,,"3,0",4,Cancha de bocha,,https://www.google.com/maps/place/Clube+Desportivo+Recreativo+S%C3%A3o+Jos%C3%A9/data=!4m7!3m6!1s0x94ce5ba4334ae621:0x76734d867c9978bb!8m2!3d-23.5894618!4d-46.6024675!16s%2Fg%2F11tx6_f6ww!19sChIJIeZKM6RbzpQRu3iZfIZNc3Y?authuser=0&hl=pt-BR&rclk=1,scraper_gmaps|clube recreativo São José dos Campos - SP
0a72fe9cdeafe88e,Thermas do Vale,"· Av. Linneu de Moura, 205",-23.1998695,-45.9143628,,,,"4,5",3099,Parque aquático,,https://www.google.com/maps/place/Thermas+do+Vale/data=!4m7!3m6!1s0x94cc35eddaaaf0dd:0x6da95a3efc983e4f!8m2!3d-23.1998695!4d-45.9143628!16s%2Fg%2F1jgm3840w!19sChIJ3fCq2u01zJQRTz6Y_D5aqW0?authuser=0&hl=pt-BR&rclk=1,scraper_gmaps|clube recreativo São José dos Campos - SP
7add95da815db648,Clube do Sindicato dos Empregados no Comércio de São José dos Campos,,-23.2251382,-45.8030694,,,,"4,6",294,Sindicato,,https://www.google.com/maps/place/Clube+do+Sindicato+dos+Empregados+no+Com%C3%A9rcio+de+S%C3%A3o+Jos%C3%A9+dos+Campos/data=!4m7!3m6!1s0x94cdb479e845d08d:0x55754c4c51ab95c6!8m2!3d-23.2251382!4d-45.8030694!16s%2Fg%2F1ptyshf3z!19sChIJjdBF6Hm0zZQRxpWrUUxMdVU?authuser=0&hl=pt-BR&rclk=1,scraper_gmaps|clube recreativo São José dos Campos - SP
870ef3d52398462d,Subsede Dragões da Real SJC,,-23.1830394,-45.8544357,,,,"5,0",4,Clube recreativo,,https://www.google.com/maps/place/Subsede+Drag%C3%B5es+da+Real+SJC/data=!4m7!3m6!1s0x94cc4ba53efad435:0x1a089b0e5311729b!8m2!3d-23.1830394!4d-45.8544357!16s%2Fg%2F11l5z8j6c2!19sChIJNdT6PqVLzJQRm3IRUw6bCBo?authuser=0&hl=pt-BR&rclk=1,scraper_gmaps|clube recreativo São José dos Campos - SP
f172162663b809f2,Projeto Social Esportivo Galo Branco,,-23.1364448,-45.7640587,,,,"5,0",3,Clube de futebol,,https://www.google.com/maps/place/Projeto+Social+Esportivo+Galo+Branco/data=!4m7!3m6!1s0x94cc4d52127fa729:0xc01ab0d03746b281!8m2!3d-23.1364448!4d-45.7640587!16s%2Fg%2F11gnrsfly_!19sChIJKad_ElJNzJQRgbJGN9CwGsA?authuser=0&hl=pt-BR&rclk=1,scraper_gmaps|clube social São José dos Campos - SP
7a35996d9247bf4b,Rotary Club São José dos Campos-Satélite,· Rua Itapoá s/n Praça Mário Cesare Porto,-23.2302784,-45.8872861,,,,"4,7",7,Club,,https://www.google.com/maps/place/Rotary+Club+S%C3%A3o+Jos%C3%A9+dos+Campos-Sat%C3%A9lite/data=!4m7!3m6!1s0x94cc4b6e634dcf0b:0xe40a4d263307ddbd!8m2!3d-23.2302784!4d-45.8872861!16s%2Fg%2F11qktsxkbm!19sChIJC89NY25LzJQRvd0HMyZNCuQ?authuser=0&hl=pt-BR&rclk=1,scraper_gmaps|clube social São José dos Campos - SP
6bdb2ad0b8373e28,Projeto Social Clube da Criança e do Adolecente,· Av. Dantas Luiz do Prado,-23.2119162,-45.8115554,,,,,,Associação de apoio aos alunos,,https://www.google.com/maps/place/Projeto+Social+Clube+da+Crian%C3%A7a+e+do+Adolecente/data=!4m7!3m6!1s0x94cc4defc610a11b:0xe154603eb85c8a2a!8m2!3d-23.2119162!4d-45.8115554!16s%2Fg%2F11jlg86nhb!19sChIJG6EQxu9NzJQRKopcuD5gVOE?authuser=0&hl=pt-BR&rclk=1,scraper_gmaps|clube social São José dos Campos - SP
6ebdaee021262767,CSCT,,-23.2058234,-45.8678715,,,,"5,0",1,Clube de futebol,,https://www.google.com/maps/place/CSCT/data=!4m7!3m6!1s0x94cc4aff9a35f4a3:0xf0367adca2188486!8m2!3d-23.2058234!4d-45.8678715!16s%2Fg%2F11dymv49x8!19sChIJo_Q1mv9KzJQRhoQYotx6NvA?authuser=0&hl=pt-BR&rclk=1,scraper_gmaps|clube social São José dos Campos - SP
080173c8e840c033,Grupo Nova Era,"· Av. Vinte e Três de Maio, 950",-23.1770553,-45.8760185,,,,"4,5",221,Club,,https://www.google.com/maps/place/Grupo+Nova+Era/data=!4m7!3m6!1s0x94cc4a25835da441:0x7f8dbbae8a521907!8m2!3d-23.1770553!4d-45.8760185!16s%2Fg%2F1td_68zs!19sChIJQaRdgyVKzJQRBxlSiq67jX8?authuser=0&hl=pt-BR&rclk=1,scraper_gmaps|clube social São José dos Campos - SP
0562fd30b21fb8df,Sesi São José dos Campos,"· Av. Cidade Jardim, 4389",-23.2519012,-45.885259,,,,"4,6",1627,Organização de serviço social,,https://www.google.com/maps/place/Sesi+S%C3%A3o+Jos%C3%A9+dos+Campos/data=!4m7!3m6!1s0x94cc4ac1aa7cfe11:0xbd546b52e8f8f951!8m2!3d-23.2519012!4d-45.885259!16s%2Fg%2F1tj1t602!19sChIJEf58qsFKzJQRUfn46FJrVL0?authuser=0&hl=pt-BR&rclk=1,scraper_gmaps|clube social São José dos Campos - SP
afdff08038b73231,GOAL Mais,,-23.2386466,-45.9105114,,,,"4,3",255,Clube esportivo,,https://www.google.com/maps/place/GOAL+Mais/data=!4m7!3m6!1s0x94cc3568819cbc8d:0x5130c4a5a76c855c!8m2!3d-23.2386466!4d-45.9105114!16s%2Fg%2F11spzn1pbh!19sChIJjbycgWg1zJQRXIVsp6XEMFE?authuser=0&hl=pt-BR&rclk=1,scraper_gmaps|clube social São José dos Campos - SP
01ae0c1868761c96,Coliseu Arena Poker Club,"· Outro lado da - Avenida Deputado Benedito Matarazzo Em frente ao, Rod. Pres. Dutra, 7.100 - Vale Sul Shopping",-23.2137098,-45.8953186,,,,"4,8",37,Clube,,https://www.google.com/maps/place/Coliseu+Arena+Poker+Club/data=!4m7!3m6!1s0x94cc4b32a75ed031:0xf5bc7de1d9314fc8!8m2!3d-23.2137098!4d-45.8953186!16s%2Fg%2F11fm3lrdhw!19sChIJMdBepzJLzJQRyE8x2eF9vPU?authuser=0&hl=pt-BR&rclk=1,scraper_gmaps|clube social São José dos Campos - SP
31cd5d0ebd586d25,Rotary Club São José dos Campos Leste,"· Av. Dep. Benedito Matarazzo, 9009",-23.2027933,-45.8830771,,,,"3,0",1,Organização de serviço social,,https://www.google.com/maps/place/Rotary+Club+S%C3%A3o+Jos%C3%A9+dos+Campos+Leste/data=!4m7!3m6!1s0x94cc4a5d0424231f:0x478497f03f041abd!8m2!3d-23.2027933!4d-45.8830771!16s%2Fg%2F11g9qv7sym!19sChIJHyMkBF1KzJQRvRoEP_CXhEc?authuser=0&hl=pt-BR&rclk=1,scraper_gmaps|clube social São José dos Campos - SP
ccad9ca5451b4886,Escola de futebol Soccerclub,,-23.1838847,-45.7970153,,,,"5,0",5,Clube,,https://www.google.com/maps/place/Escola+de+futebol+Soccerclub/data=!4m7!3m6!1s0x94cc4d4f95383a53:0x45415c32cdcb6eef!8m2!3d-23.1838847!4d-45.7970153!16s%2Fg%2F11v3lhhf91!19sChIJUzo4lU9NzJQR727LzTJcQUU?authuser=0&hl=pt-BR&rclk=1,scraper_gmaps|clube social São José dos Campos - SP
7c950cefea5dae5d,Centro Social dos Oficiais do DCTA - COCTA,,-23.2061766,-45.8818035,,,,"4,0",1,Clube esportivo,,https://www.google.com/maps/place/Centro+Social+dos+Oficiais+do+DCTA+-+COCTA/data=!4m7!3m6!1s0x94cc4bd134edab83:0xc9687898ce6bfe27!8m2!3d-23.2061766!4d-45.8818035!16s%2Fg%2F11pv776k02!19sChIJg6vtNNFLzJQRJ_5rzph4aMk?authuser=0&hl=pt-BR&rclk=1,scraper_gmaps|clube social São José dos Campos - SP
5a3012ac86383dc3,ASSEM - Associação dos Servidores Municipais de São José dos Campos,,-23.1847506,-45.8795949,,,,"4,6",564,Organização sem fins lucrativos,,https://www.google.com/maps/place/ASSEM+-+Associa%C3%A7%C3%A3o+dos+Servidores+Municipais+de+S%C3%A3o+Jos%C3%A9+dos+Campos/data=!4m7!3m6!1s0x94cc4a24ca59960d:0x38aa0bafd01cbb19!8m2!3d-23.1847506!4d-45.8795949!16s%2Fg%2F1td2j05z!19sChIJDZZZyiRKzJQRGbsc0K8Lqjg?authuser=0&hl=pt-BR&rclk=1,scraper_gmaps|associação recreativa São José dos Campos - SP
ee7ca6e8de075989,ADC Embraer EGM - Associação Desportiva Classista Embraer,,-23.1305159,-45.7635511,,,,"4,4",101,Organização de serviço social,,https://www.google.com/maps/place/ADC+Embraer+EGM+-+Associa%C3%A7%C3%A3o+Desportiva+Classista+Embraer/data=!4m7!3m6!1s0x94cc4de52bf7e983:0xef867598d8bfbd9d!8m2!3d-23.1305159!4d-45.7635511!16s%2Fg%2F11c2qs9_t4!19sChIJg-n3K-VNzJQRnb2_2Jh1hu8?authuser=0&hl=pt-BR&rclk=1,scraper_gmaps|associação desportiva classista São José dos Campos - SP
5d04c316644c6ec7,Associação Desportiva Classita-Embraer,,-23.2447983,-45.8668816,,,,"4,5",11,Associação / organização,,https://www.google.com/maps/place/Associa%C3%A7%C3%A3o+Desportiva+Classita-Embraer/data=!4m7!3m6!1s0x94cdb52a8a061a91:0x87eb87c5e2122329!8m2!3d-23.2447983!4d-45.8668816!16s%2Fg%2F11b6hsdg35!19sChIJkRoGiiq1zZQRKSMS4sWH64c?authuser=0&hl=pt-BR&rclk=1,scraper_gmaps|associação desportiva classista São José dos Campos - SP
8b4b049dd130628d,Associação Desportiva Classista Parayba,,-23.1636161,-45.8912734,,,,"4,5",26,Associação / organização,,https://www.google.com/maps/place/Associa%C3%A7%C3%A3o+Desportiva+Classista+Parayba/data=!4m7!3m6!1s0x94cc49ee8ae3126b:0x584bfbe46c37029c!8m2!3d-23.1636161!4d-45.8912734!16zL20vMGQyZnc4!19sChIJaxLjiu5JzJQRnAI3bOT7S1g?authuser=0&hl=pt-BR&rclk=1,scraper_gmaps|associação desportiva classista São José dos Campos - SP|ADC São José dos Campos - SP
cb237543a2727a86,ADC EMBRAER,"· Av. Brg. Faria Lima, 2100",-23.2212385,-45.8549874,,,,"4,7",980,Clube,,https://www.google.com/maps/place/ADC+EMBRAER/data=!4m7!3m6!1s0x94cc4b3cd1c54a27:0x9c428cdc1bd22bee!8m2!3d-23.2212385!4d-45.8549874!16s%2Fg%2F1tf3cndy!19sChIJJ0rF0TxLzJQR7ivSG9yMQpw?authuser=0&hl=pt-BR&rclk=1,scraper_gmaps|associação desportiva classista São José dos Campos - SP|ADC São José dos Campos - SP
f4a053d146ad205a,Adc,,-23.2432107,-45.9303572,,,,"4,9",10,Clube esportivo,,https://www.google.com/maps/place/Adc/data=!4m7!3m6!1s0x94cc3577778cf4ad:0x4dcc06638fc31c30!8m2!3d-23.2432107!4d-45.9303572!16s%2Fg%2F11rjkd0lld!19sChIJrfSMd3c1zJQRMBzDj2MGzE0?authuser=0&hl=pt-BR&rclk=1,scraper_gmaps|ADC São José dos Campos - SP
d3692abce3d8060b,ADC INPE,· Av. dos Astronautas,-23.2094707,-45.8578948,,,,"4,5",694,Clube,,https://www.google.com/maps/place/ADC+INPE/data=!4m7!3m6!1s0x94cc4b0515bb810b:0xbd8d05cbfd30ae95!8m2!3d-23.2094707!4d-45.8578948!16s%2Fg%2F1tj74qhy!19sChIJC4G7FQVLzJQRla4w_csFjb0?authuser=0&hl=pt-BR&rclk=1,scraper_gmaps|ADC São José dos Campos - SP
56a1e76b60f938c5,Estádio ADC Parahyba.,,-23.1634636,-45.8901435,,,,"4,4",230,Estádio de futebol,,https://www.google.com/maps/place/Est%C3%A1dio+ADC+Parahyba./data=!4m7!3m6!1s0x94cc49ee7c63dbeb:0x2118d149a446a0c3!8m2!3d-23.1634636!4d-45.8901435!16s%2Fg%2F11clyy7rj6!19sChIJ69tjfO5JzJQRw6BGpEnRGCE?authuser=0&hl=pt-BR&rclk=1,scraper_gmaps|ADC São José dos Campos - SP
35da7e21c3cd0011,ADC J. MACEDO,,-23.1692563,-45.9222275,,,,"3,7",3,Clube,,https://www.google.com/maps/place/ADC+J.+MACEDO/data=!4m7!3m6!1s0x94cc375a67a77ddf:0x26ee956070dca6f7!8m2!3d-23.1692563!4d-45.9222275!16s%2Fg%2F11txt3ghv0!19sChIJ332nZ1o3zJQR96bccGCV7iY?authuser=0&hl=pt-BR&rclk=1,scraper_gmaps|ADC São José dos Campos - SP
4afe824edade7fff,ADCCTA,,-23.210868,-45.877084,,,,"4,7",219,Associação / organização,,https://www.google.com/maps/place/ADCCTA/data=!4m7!3m6!1s0x94cc4a5e8027e3af:0x976b703d84608541!8m2!3d-23.210868!4d-45.877084!16s%2Fg%2F1ptzkzk8j!19sChIJr-MngF5KzJQRQYVghD1wa5c?authuser=0&hl=pt-BR&rclk=1,scraper_gmaps|ADC São José dos Campos - SP
